FID,SN,GAUGE_NAME,ID,Latitude,Longitude,IM30m,IM1h,IM2h,IM3h,IM6h,IM12h,IM24h,IM2D,IM3D,IM30mR,IM1hR,IM2hR,IM3hR,IM6hR,IM12hR,IM24hR,IM2DR,IM3DR,H30m,H1h,H2h,H3h,H6h,H12h,H24h,H2D,H3D,H30mR,H1hR,H2hR,H3hR,H6hR,H12hR,H24hR,H2DR,H3DR
0,1,ADIN RS,04-0029,41.1936,-120.9447,33.73159756,58.21353001,59.77758348,77.05122696,97.37186107,104.8400776,117.9520476,125.8646189,204.9238132,1.328015652,2.29187126,2.353448169,3.033512872,3.833537837,4.12756211,4.643781402,4.955299957,8.067866661,206.8053135,370.5791632,406.5531843,539.2931628,646.8406693,1293.681339,2587.362677,954.6834445,1513.205257,8.141941477,14.58973083,16.00603088,21.23201428,25.46616808,50.93233616,101.8646723,37.58596238,59.5750101
1,2,AGOURA,97-0575,34.1356,-118.7522,22.41108752,37.64349594,38.0199309,44.13952861,94.22752555,176.3614971,259.4844016,348.93816,477.0388663,0.88232628,1.482027399,1.496847673,1.737776717,3.7097451,6.943366028,10.21592132,13.73772283,18.78105773,102.1613623,220.7075535,187.268837,272.9260474,719.7668755,1439.533751,2879.067502,2453.792336,3259.931128,4.022100877,8.68927376,7.372788858,10.74511998,28.33727856,56.67455712,113.3491142,96.60599748,128.3437452
2,3,AGUA CALIENTE,92-0030,32.9567,-116.2972,18.27213571,23.075066,32.59706395,49.65097961,95.1543292,146.4517427,240.4801765,266.312074,315.6278447,0.719375422,0.908467165,1.283348974,1.954762977,3.746233433,5.765816642,9.467723484,10.48472732,12.4262931,83.59836133,107.9110378,178.7563456,297.4762814,591.135128,1182.270256,2364.540512,1673.374737,1917.251472,3.291274068,4.248466056,7.037651401,11.71166462,23.27303654,46.54607307,93.09214614,65.88089515,75.48234143
3,4,ALAMITOS,83-6001,37.2471,-121.8706,25.75202722,39.71125141,49.19643132,75.44262205,138.2413188,211.2016892,283.9752912,420.5507092,451.6826683,1.013859339,1.563435095,1.936867375,2.97018197,5.442571606,8.315027134,11.18012957,16.55711454,17.78278222,146.4628174,237.7222087,360.549954,617.8221646,1151.939388,2303.878776,4607.757551,3421.834183,3790.232163,5.766252654,9.359142075,14.19488008,24.32370727,45.3519444,90.70388881,181.4077776,134.7178812,149.2217387
4,5,ALDER SPRINGS (ALS),72-0001,39.6606,-122.7087,32.79672456,45.3678602,66.88236013,99.94939827,159.4276946,286.920238,493.4759693,723.8137499,1105.190402,1.291209628,1.786136228,2.633163785,3.93501568,6.27668089,11.29607236,19.42818777,28.49660433,43.51143315,229.4458931,299.9935526,574.2265337,913.7777231,1522.292142,3044.584285,6089.168569,6888.6482,9765.21408,9.033302876,11.81076979,22.60734384,35.97550091,59.93276151,119.865523,239.731046,271.206622,384.4572472
5,6,ALDERPOINT,04-0088,40.1833,-123.6167,46.49619249,81.03952612,84.19505456,104.5600578,147.7949878,214.2027814,326.1782404,721.9596249,1018.381571,1.830558759,3.190532524,3.314765928,4.116537709,5.818700307,8.43318037,12.84166301,28.42360728,40.09376264,349.9533236,667.0598614,737.8332939,1032.794131,1534.738637,3069.477273,6138.954546,8032.618678,11125.54377,13.77768991,26.26219927,29.04855488,40.66118625,60.42278097,120.8455619,241.6911239,316.2448299,438.0135341
6,7,ALHAMBRA,97-0239,34.0944,-118.1281,24.1922247,33.91919825,45.1204924,66.90971746,130.9963353,218.34011,321.2169808,451.0382435,567.7128554,0.952449791,1.335401506,1.776397339,2.634240845,5.157336035,8.596067323,12.64633783,17.75741116,22.35089982,124.2116699,191.1590814,295.538931,489.8954125,1004.904424,2009.808848,4019.617696,3079.042375,3719.83299,4.890223223,7.525948087,11.63539099,19.28722097,39.5631663,79.1263326,158.2526652,121.2221407,146.4501177
7,8,BADGER,04-0422,36.6286,-119.0117,24.21113681,33.37923096,43.07896701,52.98337347,78.23097895,107.0731191,156.2235283,324.6611739,431.5230095,0.953194363,1.314142951,1.696022323,2.085959585,3.079959801,4.21547713,6.15053261,12.78193598,16.98909486,108.6847424,186.9089887,261.8447798,343.9878147,576.0084802,1152.01696,2304.033921,2634.458197,3307.889552,4.278926868,7.358621603,10.3088496,13.54282735,22.67749922,45.35499844,90.70999689,103.7188267,130.2318721
8,9,BAKER,04-0436,35.2761,-116.0628,12.86474826,16.37251411,24.84804613,35.77487641,61.05302763,82.11001767,103.3549215,109.1960597,131.3481778,0.506486152,0.64458717,0.978269533,1.408459701,2.403662505,3.232677861,4.069091398,4.299057469,5.171188102,51.34214962,67.93948976,117.5072791,184.0658574,328.5438581,657.0877162,1314.175432,614.5802242,719.9906844,2.021344473,2.674783061,4.626270832,7.246687298,12.93479756,25.86959513,51.73919025,24.19607182,28.34608994
9,10,BAKERSFIELD AP,04-0442,35.4344,-119.0542,14.50829103,18.31512931,25.19731189,37.29260041,81.84317595,98.41161691,103.7187129,138.9828409,173.644861,0.57119256,0.721068083,0.992020153,1.468212615,3.222172281,3.874473107,4.083413894,5.47176539,6.83641185,59.80824322,76.71395618,141.1259285,251.9650615,641.5306239,1283.061248,2566.122496,995.0871787,1250.821983,2.354655245,3.020234495,5.556138917,9.919884312,25.25711118,50.51422235,101.0284447,39.17666058,49.24495995
10,11,BALCH POWER HOUSE,04-0449,36.9092,-119.0883,30.86697458,58.9309813,59.52029111,60.71069693,85.61033261,117.8934865,190.1109489,290.611191,418.5417118,1.21523522,2.320117374,2.343318548,2.390184919,3.370485536,4.641475846,7.484683028,11.44138547,16.47802015,202.528815,380.599224,271.5017034,377.6753682,625.9121728,1251.824346,2503.648691,2278.938008,3130.310472,7.973575392,14.98422142,10.68904344,14.86910898,24.64221153,49.28442305,98.56884611,89.72196882,123.2405698
11,12,BALDY MESA COUNTY YARD #1,79-6383,34.4683,-117.3932,17.33667881,23.31671338,29.09770799,43.15007445,78.80479894,147.3528823,260.7039952,421.4621471,622.3414696,0.68254641,0.917980842,1.145579055,1.698821829,3.102551139,5.801294579,10.26393682,16.59299792,24.50163266,72.58657487,115.4023971,141.4415562,242.9894145,469.1194976,938.2389951,1876.47799,2158.896664,3000.302055,2.857739168,4.543401459,5.568565206,9.566512383,18.46927156,36.93854312,73.87708623,84.99593167,118.1221281
12,13,BANNING BENCH,90-0011,33.9722,-116.9117,19.47217306,25.70453378,39.0099456,57.13904018,113.6910665,220.5077146,331.106582,571.45846,682.5605446,0.766620987,1.011989519,1.53582463,2.249568511,4.47602624,8.681406087,13.0356922,22.49836457,26.87246239,87.59420423,118.4536295,219.2862515,355.7848235,699.2673648,1398.53473,2797.069459,2905.719694,3532.216786,3.448590718,4.66352872,8.633316989,14.00727652,27.53021121,55.06042243,110.1208449,114.3984132,139.063653
13,14,BARDSDALE-YOUNG RANCH,93-0096,34.3636,-118.945,27.59556347,37.35158783,43.66562993,58.48833284,113.9473823,221.054619,315.9537403,464.7099171,572.078844,1.086439507,1.470534954,1.719119289,2.302690269,4.486117413,8.702937756,12.43912363,18.29566603,22.52278913,155.4928641,224.7841863,274.7334552,401.6560779,870.0120586,1740.024117,3480.048234,3173.370413,3845.689751,6.121766304,8.849771114,10.81627777,15.81323141,34.25244325,68.5048865,137.009773,124.935843,151.4051083
14,15,BARLEY FLAT,97-0998,34.2679,-118.0677,21.26877769,28.3725446,39.03722871,56.65658159,105.7578573,239.2465442,341.2466892,462.3815883,570.1551358,0.837353452,1.117029315,1.536898768,2.230574078,4.163695169,9.419155283,13.43490902,18.20399954,22.44705259,108.6119718,143.2897808,273.1814916,436.1397865,821.0844188,1642.168838,3284.337675,3098.693168,3661.523393,4.27606188,5.641329954,10.75517683,17.17085774,32.32615822,64.65231644,129.3046329,121.995794,144.1544643
15,16,BARON RANCH,80-0262,34.4833,-120.1292,29.44399719,49.26864313,49.76132956,63.10086658,85.88583386,132.5617547,223.2258699,395.6209729,463.2017244,1.159212488,1.939710359,1.959107463,2.484286086,3.381332042,5.21896672,8.788420075,15.57562885,18.23628836,161.3711727,309.8589679,313.725343,443.7096951,621.7867184,1243.573437,2487.146874,2849.960465,3310.776352,6.353195774,12.19917197,12.35139146,17.46888564,24.47979206,48.95958413,97.91916826,112.2031679,130.3455257
16,17,BARRETT DAM,04-0514,32.6833,-116.6667,18.86476383,26.65168,35.98209262,49.37155112,104.2249568,143.050386,185.9143886,247.3596788,303.2950279,0.742707237,1.04927874,1.41661782,1.943761855,4.103344756,5.631904961,7.319464118,9.738570031,11.94074913,79.93323956,131.4712289,206.9236259,301.5780893,669.114742,1338.229484,2676.458968,1687.664597,2007.04865,3.146977935,5.176032634,8.146599445,11.87315312,26.34310008,52.68620016,105.3724003,66.44348809,79.01766339
17,18,BARSTOW,04-0519,34.9,-117.0333,10.29543265,13.16171861,21.77587117,33.73573484,61.96809649,77.65742425,121.2497002,196.0324019,306.8247742,0.405331994,0.518177898,0.857317763,1.328178537,2.439688838,3.057378907,4.773610244,7.717811098,12.07971552,39.84951631,48.62365211,100.3373995,160.0948161,301.7535579,603.5071158,1207.014232,894.7870997,1319.336688,1.568878595,1.914317012,3.950291321,6.302945515,11.88006134,23.76012267,47.52024534,35.22783857,51.94238931
18,19,BARSTOW - DAGGETT AIRPORT,79-4393,34.8571,-116.795,15.90757294,23.51567835,28.78063639,43.08472308,75.20140812,99.05060428,128.872227,216.7989579,264.1433337,0.626282399,0.925814108,1.133095921,1.69624894,2.960685359,3.89963009,5.073709724,8.535392043,10.39934385,79.71592048,127.971015,143.5299629,220.6933677,362.0971567,724.1943135,1448.388627,1076.31114,1276.497318,3.138422066,5.038228937,5.650785942,8.688715264,14.25579357,28.51158714,57.02317429,42.37445434,50.25579993
19,20,BATTLE CREEK ADR,04-0546,40.3983,-122.1453,47.05687487,65.1556849,99.06393473,136.5412877,200.4847621,404.584755,826.2350934,1061.895027,1328.536943,1.852632869,2.565184445,3.900154911,5.375641248,7.89310087,15.92853366,32.52894069,41.80689083,52.30460406,348.1065499,450.5746074,833.4556484,1264.072922,1936.232137,3872.464275,7744.92855,8367.295454,10100.84322,13.70498228,17.73915777,32.81321451,49.76665046,76.22961171,152.4592234,304.9184468,329.4210809,397.6709928
20,21,BEAR DIVIDE,97-1056,34.3597,-118.3936,31.39986528,45.75312208,63.52482429,86.35001283,146.628384,245.7453479,323.2068893,448.106148,557.6907123,1.236215169,1.801304019,2.500977334,3.399606804,5.772771024,9.675013697,12.72468068,17.64197433,21.95632726,189.2758615,265.8543472,430.2665636,635.4049333,1078.176189,2156.352377,4312.704755,3000.147062,3603.865175,7.451805572,10.46670658,16.93962849,25.01594225,42.44788145,84.89576289,169.7915258,118.1160261,141.8844557
21,22,BEARTRAP MEADOW (BRM),72-0006,36.6764,-118.8588,23.60835174,40.19413433,40.59607567,50.42528513,79.45782905,111.2490851,203.2678441,432.9426235,594.954179,0.929462667,1.582446233,1.598270696,1.985247446,3.128260986,4.37988524,8.002671028,17.04498518,23.42339287,111.1377848,240.5259445,258.4077063,354.1303842,585.909064,1171.818128,2343.636256,3119.466788,4072.821425,4.375503337,9.469525376,10.17353175,13.94214111,23.06728599,46.13457197,92.26914394,122.8136531,160.3473002
22,23,BEAUMONT,04-0606,33.9292,-116.975,19.47217306,25.70453378,39.0099456,57.13904018,113.6910665,220.5077146,331.106582,571.45846,682.5605446,0.766620987,1.011989519,1.53582463,2.249568511,4.47602624,8.681406087,13.0356922,22.49836457,26.87246239,87.59420423,118.4536295,219.2862515,355.7848235,699.2673648,1398.53473,2797.069459,2905.719694,3532.216786,3.448590718,4.66352872,8.633316989,14.00727652,27.53021121,55.06042243,110.1208449,114.3984132,139.063653
23,24,BEAUMONT PUMPING PLANT,04-0607,33.9833,-116.9667,19.47217306,25.70453378,39.0099456,57.13904018,113.6910665,220.5077146,331.106582,571.45846,682.5605446,0.766620987,1.011989519,1.53582463,2.249568511,4.47602624,8.681406087,13.0356922,22.49836457,26.87246239,87.59420423,118.4536295,219.2862515,355.7848235,699.2673648,1398.53473,2797.069459,2905.719694,3532.216786,3.448590718,4.66352872,8.633316989,14.00727652,27.53021121,55.06042243,110.1208449,114.3984132,139.063653
24,25,BIG BASIN WAY,83-6009,37.2518,-122.0489,24.25132209,34.50778187,44.57224258,68.57933792,123.2172645,216.3062383,291.0277502,437.7145322,467.7556523,0.95477646,1.358574089,1.7548127,2.699973934,4.851073406,8.515993634,11.45778544,17.2328556,18.41557686,119.1194354,202.7583443,288.0565953,516.573862,951.191891,1902.383782,3804.767564,3479.182155,3805.821174,4.689741549,7.982611979,11.34081084,20.33755362,37.44849965,74.89699929,149.7939986,136.9756754,149.8354793
25,26,BIG BEAR LAKE,04-0741,34.2442,-116.9039,16.66485392,26.8145342,27.08267955,34.65148363,57.66386845,99.47063292,152.2404692,371.0464844,485.5364753,0.656096611,1.055690323,1.066247226,1.364231639,2.270231041,3.91616665,5.99371926,14.60812931,19.11560926,68.85046939,129.3372587,135.9386583,192.0050199,334.0923113,668.1846226,1336.369245,1951.639211,2533.469217,2.710648401,5.09201806,5.351915682,7.559252752,13.1532406,26.30648121,52.61296241,76.83618942,99.74288258
26,27,BIG BEAR LAKE DAM,04-0742,34.2414,-116.9744,16.66485392,26.8145342,27.08267955,34.65148363,57.66386845,99.47063292,152.2404692,371.0464844,485.5364753,0.656096611,1.055690323,1.066247226,1.364231639,2.270231041,3.91616665,5.99371926,14.60812931,19.11560926,68.85046939,129.3372587,135.9386583,192.0050199,334.0923113,668.1846226,1336.369245,1951.639211,2533.469217,2.710648401,5.09201806,5.351915682,7.559252752,13.1532406,26.30648121,52.61296241,76.83618942,99.74288258
27,28,BIG CREEK 1,95-0026,37.205,-119.24,34.34393968,81.04137997,81.85179377,83.48882965,120.8640649,174.1444275,238.6276565,337.9061223,432.7997691,1.352123609,3.190605511,3.222511566,3.286961797,4.758427752,6.856079823,9.394789626,13.30339064,17.03936099,204.0835524,571.6855871,352.5819473,525.788764,946.1141845,1892.228369,3784.456738,2683.267592,3449.868069,8.034785526,22.50730658,13.88117903,20.70034504,37.24858994,74.49717988,148.9943598,105.6404564,135.8215775
28,29,BIG CREEK PH 1,04-0755,37.2064,-119.2419,34.34393968,81.04137997,81.85179377,83.48882965,120.8640649,174.1444275,238.6276565,337.9061223,432.7997691,1.352123609,3.190605511,3.222511566,3.286961797,4.758427752,6.856079823,9.394789626,13.30339064,17.03936099,204.0835524,571.6855871,352.5819473,525.788764,946.1141845,1892.228369,3784.456738,2683.267592,3449.868069,8.034785526,22.50730658,13.88117903,20.70034504,37.24858994,74.49717988,148.9943598,105.6404564,135.8215775
29,30,BIG DALTON DAM,97-0353,34.1667,-117.8014,25.93123142,33.35534565,48.06597348,69.01191077,117.1718888,219.9071712,302.4907689,517.175576,663.8808322,1.020914623,1.313202585,1.892361161,2.717004361,4.613066488,8.657762646,11.90908539,20.36124315,26.13704064,147.8012024,191.7586038,340.0918546,527.8814538,884.0674509,1768.134902,3536.269804,3122.283027,3823.647695,5.818944975,7.54955133,13.38944309,20.7827344,34.80580515,69.61161031,139.2232206,122.9245286,150.5373108
30,31,BIG PINES,97-0172,34.3679,-117.6838,18.04109631,31.34430718,31.65775025,36.1614017,67.34975636,104.7628029,142.1246732,247.4708531,400.2689328,0.710279382,1.234027842,1.24636812,1.423677232,2.651565211,4.124519799,5.595459575,9.742946972,15.7586194,89.3307536,175.095898,129.8283014,206.3109732,412.5064801,825.0129602,1650.02592,1505.659913,2310.406073,3.516958803,6.893539292,5.111350448,8.122479262,16.2404126,32.4808252,64.96165041,59.27794932,90.96086901
31,32,BIG PINES PARK FC83B,04-0779,34.3833,-117.6833,18.04109631,31.34430718,31.65775025,36.1614017,67.34975636,104.7628029,142.1246732,247.4708531,400.2689328,0.710279382,1.234027842,1.24636812,1.423677232,2.651565211,4.124519799,5.595459575,9.742946972,15.7586194,89.3307536,175.095898,129.8283014,206.3109732,412.5064801,825.0129602,1650.02592,1505.659913,2310.406073,3.516958803,6.893539292,5.111350448,8.122479262,16.2404126,32.4808252,64.96165041,59.27794932,90.96086901
32,33,BIG PINES RECREATION PARK,97-0173,34.3679,-117.6839,18.04109631,31.34430718,31.65775025,36.1614017,67.34975636,104.7628029,142.1246732,247.4708531,400.2689328,0.710279382,1.234027842,1.24636812,1.423677232,2.651565211,4.124519799,5.595459575,9.742946972,15.7586194,89.3307536,175.095898,129.8283014,206.3109732,412.5064801,825.0129602,1650.02592,1505.659913,2310.406073,3.516958803,6.893539292,5.111350448,8.122479262,16.2404126,32.4808252,64.96165041,59.27794932,90.96086901
33,34,BIG SANTA ANITA DAM,97-0138,34.1834,-118.0192,21.26101719,28.28250591,41.36818021,61.73192515,118.652386,212.109288,321.8767654,419.7910445,575.9234912,0.837047921,1.113484485,1.628668512,2.430390754,4.67135378,8.35075937,12.6723136,16.52720648,22.6741532,101.7462935,138.5086565,268.1117118,439.8156986,867.5481688,1735.096338,3470.192675,2873.641034,3669.598104,4.005759586,5.453096713,10.5555792,17.31557868,34.15543972,68.31087943,136.6217589,113.1354738,144.4723663
34,35,BIG SUR STATION,04-0790,36.2472,-121.7803,40.42004991,71.82818096,75.42287603,98.72589084,143.7163217,225.7525131,326.5546833,518.3299457,654.2235815,1.591340548,2.82788114,2.969404568,3.886846096,5.658122902,8.887894217,12.85648359,20.40669078,25.75683392,283.7998115,511.8266768,579.4982323,820.1946153,1246.704906,2493.409811,4986.819623,4247.984122,5256.108932,11.17322093,20.15065657,22.81489103,32.29112658,49.0828703,98.16574061,196.3314812,167.2434694,206.9334225
35,36,BIG TUJUNGA CYN - BIG TUJ,96-0103,34.2944,-118.1872,29.22467048,38.50128877,46.58999003,62.57088605,108.7077465,184.4839953,291.2719989,481.8082869,608.592603,1.150577578,1.51579877,1.834251576,2.463420711,4.279832539,7.263149421,11.46740153,18.96883019,23.9603387,187.4329177,237.2974855,300.1271633,423.5208658,767.9126881,1535.825376,3071.650752,3027.141732,3712.489367,7.379248727,9.342420689,11.81603005,16.67404984,30.232783,60.46556599,120.931132,119.1788083,146.1609987
36,37,BIG TUJUNGA DAM FC46,04-0798,34.2947,-118.1883,29.22467048,38.50128877,46.58999003,62.57088605,108.7077465,184.4839953,291.2719989,481.8082869,608.592603,1.150577578,1.51579877,1.834251576,2.463420711,4.279832539,7.263149421,11.46740153,18.96883019,23.9603387,187.4329177,237.2974855,300.1271633,423.5208658,767.9126881,1535.825376,3071.650752,3027.141732,3712.489367,7.379248727,9.342420689,11.81603005,16.67404984,30.232783,60.46556599,120.931132,119.1788083,146.1609987
37,38,BIG TUJUNGA SPREADING GRO,97-0906,34.2778,-118.2981,26.30720116,37.32143569,47.04294942,66.04545732,117.3775226,192.2588397,296.5198168,439.4840864,552.7567899,1.035716581,1.469347862,1.852084623,2.600214855,4.621162307,7.569245657,11.67400854,17.30252309,21.76207834,152.0753439,213.1361569,301.1744015,463.9414455,865.5916678,1731.183336,3462.366671,2936.333328,3584.260546,5.987218265,8.391187279,11.8572599,18.26541124,34.07841212,68.15682423,136.3136485,115.6036743,141.1126199
38,39,BISHOP AP,04-0822,37.3711,-118.3581,17.76842101,32.2765359,32.59930126,42.27700453,61.20865054,87.38581852,132.9775277,194.2264652,223.1843193,0.699544134,1.27072976,1.283437057,1.664448997,2.409789391,3.440386556,5.235335736,7.646711228,8.786784224,79.76761811,179.2640567,157.333363,225.4982656,348.4301469,696.8602939,1393.720588,1084.903824,1227.139304,3.140457406,7.057640026,6.194226891,8.877884472,13.71772232,27.43544464,54.87088928,42.71274898,48.31257103
39,40,BISHOP CREEK INTAKE 2,04-0819,37.2481,-118.5814,22.78164726,42.85104146,43.27955187,44.14514291,55.92211114,107.1575783,201.7560263,320.1789248,439.5062653,0.896915246,1.687048876,1.703919365,1.737997752,2.201657919,4.218802295,7.943150642,12.60546948,17.30339627,107.174662,273.2166247,145.0113736,181.5560482,359.9416425,719.8832849,1439.76657,2137.612214,2844.460629,4.21947488,10.75656003,5.709109198,7.147875915,14.17093081,28.34186161,56.68372322,84.15796118,111.9866389
40,41,BLACK BUTTE WEATHER (BLBW,72-0004,39.8061,-122.3298,40.71197154,67.03800152,77.82072401,104.9814444,187.2152586,323.3924879,639.7428039,834.1115153,1147.778213,1.602833525,2.639291398,3.063808032,4.133127732,7.370679472,12.73198771,25.18672456,32.83903604,45.18811862,276.7546055,479.1034558,620.8730486,927.7311127,1771.278521,3542.557041,7085.114082,7098.652113,9583.049863,10.89585061,18.86234078,24.44382081,36.52484695,69.73537483,139.4707497,278.9414993,279.4744927,377.2854277
41,42,BLACK MOUNTAIN 2 WSW,04-0850,37.3167,-122.1667,35.55675466,51.09312246,59.00485344,85.23671827,155.0061381,248.0610371,385.3821928,525.5270409,606.0461208,1.399872231,2.011540254,2.323025726,3.35577631,6.102603862,9.766182563,15.17252728,20.69004098,23.8600835,234.1580219,333.9284423,423.9763962,679.5307982,1242.035038,2484.070076,4968.140153,4367.38418,4961.57967,9.218819761,13.14678907,16.6919841,26.75318103,48.89901725,97.79803451,195.596069,171.9442591,195.3377823
42,43,BLACK ROAD,83-6010,37.209,-122.0434,24.25132209,34.50778187,44.57224258,68.57933792,123.2172645,216.3062383,291.0277502,437.7145322,467.7556523,0.95477646,1.358574089,1.7548127,2.699973934,4.851073406,8.515993634,11.45778544,17.2328556,18.41557686,119.1194354,202.7583443,288.0565953,516.573862,951.191891,1902.383782,3804.767564,3479.182155,3805.821174,4.689741549,7.982611979,11.34081084,20.33755362,37.44849965,74.89699929,149.7939986,136.9756754,149.8354793
43,44,BLODGETT EXP FOREST,04-0883,38.9092,-120.6678,31.18551736,54.40884665,54.95293512,61.97008094,104.4507348,197.2331874,365.1221542,445.2725123,758.8307333,1.227776274,2.142080577,2.163501383,2.439766966,4.112233654,7.765086118,14.37488796,17.53041387,29.87522572,193.6060001,433.0799112,305.3424317,436.6812828,906.3926446,1812.785289,3625.570578,5096.801202,8038.838061,7.622283469,17.0503902,12.02135558,17.19217649,35.68474979,71.36949957,142.7389991,200.6614647,316.4896874
44,45,BLOSSOM VALLEY,92-0210,32.8667,-116.85,22.61681079,25.96421054,44.20904795,63.16177082,129.7099582,181.7463342,256.1508985,294.9901961,359.2477305,0.890425622,1.022213013,1.740513699,2.486683891,5.106691268,7.155367488,10.08468104,11.61378725,14.14361144,114.0371507,132.1204639,263.9771988,408.7952819,854.0500857,1708.100171,3416.200343,2095.141653,2421.900496,4.489651603,5.201593067,10.3928031,16.09430244,33.62401912,67.24803824,134.4960765,82.48589184,95.35041321
45,46,BLUE CANYON NYACK AP,04-0897,39.2775,-120.7103,33.87019856,72.96966637,73.69936303,75.17335029,120.3108921,210.4097501,293.01505,422.822557,733.7014207,1.333472384,2.872821511,2.901549726,2.95958072,4.736649295,8.283848429,11.53602559,16.64655736,28.8858827,207.8811198,577.0817309,365.1167154,580.4820716,1152.429832,2304.859663,4609.719327,5047.855296,8104.39112,8.184296054,22.71975318,14.37467384,22.85362486,45.37125322,90.74250643,181.4850129,198.7344605,319.0705165
46,47,BLUE LAKES,98-0017,38.6,-119.9007,31.48569189,66.39898023,67.06297003,68.40422943,76.90831265,129.6262048,235.1615624,262.0222688,457.4487549,1.239594169,2.61413308,2.640274411,2.693079899,3.027886325,5.10339389,9.258329228,10.31583735,18.0097935,180.4173486,502.2035582,255.3658201,363.053246,544.2646817,1088.529363,2177.058727,2289.786926,3728.758199,7.103045222,19.77179363,10.05377244,14.29343488,21.42774338,42.85548675,85.7109735,90.14909157,146.8015039
47,48,BLYTHE,04-0924,33.6131,-114.5972,10.05368915,12.65687041,18.58594989,25.63022857,40.75921121,53.50201267,60.7423212,61.56851107,69.23621474,0.395814533,0.498301985,0.731730311,1.009064117,1.604693355,2.106378452,2.391429969,2.423957129,2.725835226,33.19895421,44.70243974,80.37060898,122.4557999,210.3808334,420.7616668,841.5233337,357.1157359,416.5381914,1.307045441,1.759938572,3.164197204,4.821094484,8.282709977,16.56541995,33.13083991,14.05967464,16.39914139
48,49,BLYTHE 7 W,04-0925,33.6167,-114.7167,12.72423352,17.62213744,20.75246576,27.73431252,40.18624682,50.70032106,56.91795809,59.3980678,66.94163493,0.500954076,0.693784939,0.817026211,1.091902068,1.582135702,1.996075632,2.240864492,2.338506606,2.635497438,54.06751471,77.05354867,93.85518495,133.062694,212.4821531,424.9643062,849.9286125,356.5347961,422.8517886,2.128642311,3.033604278,3.695086022,5.238688742,8.365439099,16.7308782,33.4617564,14.036803,16.64770821
49,50,BLYTHE AP,04-0927,33.6186,-114.7142,12.72423352,17.62213744,20.75246576,27.73431252,40.18624682,50.70032106,56.91795809,59.3980678,66.94163493,0.500954076,0.693784939,0.817026211,1.091902068,1.582135702,1.996075632,2.240864492,2.338506606,2.635497438,54.06751471,77.05354867,93.85518495,133.062694,212.4821531,424.9643062,849.9286125,356.5347961,422.8517886,2.128642311,3.033604278,3.695086022,5.238688742,8.365439099,16.7308782,33.4617564,14.036803,16.64770821
50,51,BOCA,04-0931,39.3886,-120.0936,34.15291136,64.93346841,65.5828031,81.32695584,171.6236602,258.3705848,442.1279964,613.5486432,726.5639041,1.344602809,2.556435764,2.582000122,3.201848655,6.756837016,10.17207027,17.40661403,24.15545839,28.60487811,210.9563067,493.3040345,419.851859,613.0764934,1320.895956,2641.791912,5283.583825,4669.640499,5565.151122,8.305366405,19.42141868,16.52960075,24.13686982,52.00377781,104.0075556,208.0151112,183.8441141,219.1004379
51,52,BODIE,04-0943,38.2119,-119.0142,17.0665105,32.21991427,32.54211341,37.45844365,62.49065149,82.64931297,87.47530817,99.03931957,124.2721195,0.671909862,1.268500562,1.281185567,1.474741876,2.46026187,3.253909959,3.44390977,3.89918581,4.89260313,70.99551658,183.0274336,151.4044497,220.768174,369.9789655,739.957931,1479.915862,666.5771505,856.3642182,2.795099078,7.205804472,5.960805107,8.691660394,14.566101,29.13220201,58.26440402,26.2431949,33.7151267
52,53,BON TEMPE DAM,84-0969,37.957,-122.61,26.99094563,32.9916593,47.23114347,64.35696993,110.4157734,242.1239494,408.5019706,479.4654489,670.5191424,1.062635655,1.298884224,1.859493837,2.533738974,4.347077693,9.532438953,16.08275475,18.87659248,26.39839143,128.0160754,169.161003,303.2893921,491.8378781,988.031594,1976.063188,3952.126376,4359.233041,5803.332309,5.04000297,6.659882009,11.94052725,19.36369599,38.89888166,77.79776331,155.5955266,171.6233481,228.47765
53,54,BONITA,04-0968,32.6667,-117.0333,26.3935604,33.55033283,50.48598984,63.80614321,121.2747161,141.0134877,192.8310958,263.9936391,321.4257653,1.039116551,1.320879245,1.987637395,2.512052882,4.774595122,5.551712114,7.591775425,10.39345036,12.65455769,145.4858263,182.6555196,311.0086836,416.6050647,797.4854658,1594.970932,3189.941863,1838.30452,2152.533,5.727788439,7.191162189,12.24443636,16.4017742,31.39706558,62.79413116,125.5882623,72.37419372,84.7453937
54,55,BONITA ALLEN SCHOOL,92-0240,32.6561,-117.0333,26.3935604,33.55033283,50.48598984,63.80614321,121.2747161,141.0134877,192.8310958,263.9936391,321.4257653,1.039116551,1.320879245,1.987637395,2.512052882,4.774595122,5.551712114,7.591775425,10.39345036,12.65455769,145.4858263,182.6555196,311.0086836,416.6050647,797.4854658,1594.970932,3189.941863,1838.30452,2152.533,5.727788439,7.191162189,12.24443636,16.4017742,31.39706558,62.79413116,125.5882623,72.37419372,84.7453937
55,56,BORON,04-0979,35.0042,-117.6503,14.19103988,24.05388778,26.58064792,38.11575013,66.54183288,88.81108792,127.6154078,255.7854998,369.3356332,0.558702357,0.947003456,1.046482202,1.500620084,2.6197572,3.496499524,5.024228654,10.07029527,14.54077296,59.55399295,116.996351,141.0862092,218.2615337,382.3999832,764.7999664,1529.599933,1262.049107,1700.319947,2.344645392,4.60615555,5.554575164,8.592973767,15.05511745,30.1102349,60.22046979,49.68697271,66.94173019
56,57,CABAZON,04-1250,33.9167,-116.7833,16.84314893,21.06659451,32.62267082,51.89752879,112.8638714,206.2161189,316.2462511,504.1767309,598.8667755,0.6631161,0.829393485,1.284357119,2.043209795,4.443459504,8.118744839,12.45063981,19.84947759,23.57743211,74.26000943,96.03373603,179.8634957,315.8655395,672.2151999,1344.4304,2688.8608,2417.498812,2954.59013,2.923622419,3.780855749,7.081239988,12.43565116,26.46516535,52.9303307,105.8606614,95.1771186,116.3224461
57,58,CACHUMA LAKE,04-1253,34.5825,-119.9808,30.63468857,44.1992994,61.96774964,77.16880297,111.5311581,195.0515009,310.2833053,440.8678669,503.7602466,1.206090101,1.740129898,2.439675183,3.038141849,4.390990476,7.679192949,12.21587816,17.35700263,19.83308057,190.5387981,271.1431764,438.1027099,563.3146733,829.2237966,1658.447593,3316.895186,3173.221791,3622.972598,7.501527482,10.6749282,17.24813819,22.17774304,32.64660616,65.29321233,130.5864247,124.9299918,142.6367164
58,59,CAJON JUNCTION,79-9028,34.3121,-117.4785,18.43352409,29.1316706,30.88043404,44.69377347,85.48845942,188.2220195,315.8422841,527.6757019,669.8610056,0.725729295,1.146916165,1.21576512,1.759597381,3.365687379,7.410315728,12.43473559,20.77463393,26.37248054,78.5586064,150.7174617,154.7087249,266.9265369,561.7883894,1123.576779,2247.153557,2777.739816,3477.942275,3.09285852,5.933758336,6.090894682,10.50891877,22.11765312,44.23530625,88.4706125,109.3598353,136.9268612
59,60,CAJON WEST SUMMIT,04-1272,34.39,-117.5925,16.73330355,27.16830137,30.1761094,44.90828772,89.44403016,172.0497922,252.7272463,361.5354673,500.3675803,0.658791478,1.069618164,1.188035803,1.768042824,3.52141851,6.773613866,9.949891587,14.23367981,19.69951104,69.05508839,137.223596,149.3434186,252.9002847,511.6077019,1023.215404,2046.430808,1879.629459,2506.036768,2.718704267,5.402503779,5.879662148,9.95670412,20.14203551,40.28407102,80.56814204,74.00115981,98.66286489
60,61,CAL STATE S.B.,79-2893,34.1872,-117.3211,20.91818289,31.24254764,35.97370083,51.91326778,95.21077509,173.2109308,287.9510111,542.2646641,721.513278,0.823550507,1.230021561,1.416287434,2.04382944,3.748455712,6.819327984,11.33665398,21.34900252,28.40603457,94.59476704,165.2411629,203.3805625,337.4315294,640.017206,1280.034412,2560.068824,2879.721435,3726.261284,3.724203427,6.505557594,8.007108761,13.28470588,25.1975278,50.39505559,100.7901112,113.3748596,146.7032002
61,62,CALABASAS,97-0011,34.1507,-118.6339,24.07786593,39.74797785,40.14545763,53.39420558,106.8508617,187.3393948,253.02769,367.6705138,470.9696714,0.947947478,1.564881018,1.580529828,2.102134078,4.206726839,7.375566724,9.961720079,14.47521708,18.54211305,126.990181,232.0599008,233.088911,349.1039107,799.6225861,1599.245172,3198.490344,2622.514179,3283.98493,4.999613427,9.136216567,9.176728778,13.74424845,31.48120418,62.96240835,125.9248167,103.2485897,129.2907453
62,63,CALAVERAS BIG TREES,04-1277,38.2769,-120.3114,26.50010018,39.43608658,47.41018055,65.31363468,106.2242737,163.8434329,206.5299361,259.4271839,435.9615418,1.043311031,1.552601834,1.866542541,2.57140294,4.18205802,6.450528854,8.131099846,10.21366866,17.16384023,139.843654,234.862082,322.2916586,499.6930417,870.6433641,1741.286728,3482.573457,2706.050729,4350.346919,5.50565567,9.246538663,12.68864798,19.6729544,34.2772978,68.5545956,137.1091912,106.5374303,171.2735008
63,64,CALAVERAS RANGER STN,04-1280,38.2,-120.3667,25.66205169,31.02889584,46.50773122,60.64917779,85.88259678,133.9841348,212.4977361,264.8112255,460.583762,1.010316996,1.221610072,1.83101304,2.387762905,3.381204598,5.274965937,8.366052602,10.4256388,18.13321898,133.5906178,160.2992552,316.5843928,445.718009,680.5949502,1361.1899,2722.379801,2696.939992,4527.887337,5.259473141,6.310994298,12.46395247,17.54795311,26.79507678,53.59015356,107.1803071,106.1787398,178.263281
64,65,CALAVERAS RS,95-0093,38.198,-120.367,25.66205169,31.02889584,46.50773122,60.64917779,85.88259678,133.9841348,212.4977361,264.8112255,460.583762,1.010316996,1.221610072,1.83101304,2.387762905,3.381204598,5.274965937,8.366052602,10.4256388,18.13321898,133.5906178,160.2992552,316.5843928,445.718009,680.5949502,1361.1899,2722.379801,2696.939992,4527.887337,5.259473141,6.310994298,12.46395247,17.54795311,26.79507678,53.59015356,107.1803071,106.1787398,178.263281
65,66,CALERO,96-0110,37.1697,-121.7569,26.28233873,37.42641075,47.6159943,72.1456072,126.1762092,195.5949045,270.3139161,365.5904919,393.6744596,1.034737745,1.473480738,1.874645445,2.840378236,4.967567291,7.700586791,10.64228016,14.39332645,15.49899447,148.6182956,223.5478295,345.6458053,588.8954565,1056.744192,2113.488383,4226.976766,2996.314977,3352.941758,5.851113999,8.801095649,13.60810257,23.18486049,41.60410203,83.20820406,166.4164081,117.9651566,132.005581
66,67,CALERO RESERVOIR,83-6012,37.1786,-121.7652,26.28233873,37.42641075,47.6159943,72.1456072,126.1762092,195.5949045,270.3139161,365.5904919,393.6744596,1.034737745,1.473480738,1.874645445,2.840378236,4.967567291,7.700586791,10.64228016,14.39332645,15.49899447,148.6182956,223.5478295,345.6458053,588.8954565,1056.744192,2113.488383,4226.976766,2996.314977,3352.941758,5.851113999,8.801095649,13.60810257,23.18486049,41.60410203,83.20820406,166.4164081,117.9651566,132.005581
67,68,CALERO WATERSHED,83-6128,37.1697,-121.758,26.28233873,37.42641075,47.6159943,72.1456072,126.1762092,195.5949045,270.3139161,365.5904919,393.6744596,1.034737745,1.473480738,1.874645445,2.840378236,4.967567291,7.700586791,10.64228016,14.39332645,15.49899447,148.6182956,223.5478295,345.6458053,588.8954565,1056.744192,2113.488383,4226.976766,2996.314977,3352.941758,5.851113999,8.801095649,13.60810257,23.18486049,41.60410203,83.20820406,166.4164081,117.9651566,132.005581
68,69,CALEXICO 2 NE,04-1288,32.6881,-115.4644,7.445689032,8.846439863,12.58113289,17.00629803,26.80996839,42.04274975,47.44143035,54.091827,61.04982767,0.293137363,0.348285034,0.495320193,0.669539293,1.055510567,1.655226368,1.867772848,2.129599488,2.403536522,21.24361159,25.3247343,44.31107874,68.15021854,124.116488,248.2329761,496.4659521,281.1201707,325.8729108,0.836362661,0.997036783,1.744530659,2.68307947,4.886475907,9.772951813,19.54590363,11.06772326,12.82964216
69,70,CALICO COUNTY REGIONAL PA,79-6304,34.9516,-116.8642,12.97315098,17.61514675,24.63213666,34.74801203,55.69577927,69.29217909,104.1848954,157.2403076,249.0049243,0.510753976,0.693509715,0.96976916,1.36803197,2.192747215,2.728038547,4.101767535,6.190563291,9.803343476,53.10477283,76.63641174,123.5293738,179.3373231,289.2762326,578.5524651,1157.10493,787.6827483,1173.397526,2.090739088,3.017181565,4.863361174,7.060524532,11.38882805,22.77765611,45.55531221,31.01113182,46.196753
70,71,CALIF HOT SPRINGS RANGER,04-1300,35.8833,-118.6833,22.33151763,27.23530014,42.10645372,57.14885598,89.87585485,108.4957323,137.4741041,257.7533649,355.6420207,0.879193607,1.072255911,1.657734398,2.24995496,3.538419482,4.271485524,5.412366303,10.14777027,14.00165436,117.756667,138.2069901,274.1932265,405.0488063,673.1734675,1346.346935,2692.69387,1881.178252,2527.201823,4.636089251,5.441220081,10.79500892,15.9468034,26.50289242,53.00578484,106.0115697,74.06213592,99.49613475
71,72,CALISTOGA,04-1312,38.5961,-122.6014,33.73608201,49.37141637,66.66262991,90.87909259,134.2514438,235.7605416,439.3115653,735.8662345,1112.525955,1.328192205,1.94375655,2.624512989,3.577917031,5.285489913,9.281911087,17.29573092,28.97111159,43.80023445,211.6268442,322.2311249,517.643804,791.5684233,1243.388029,2486.776058,4973.552116,6789.536316,9626.723708,8.33176552,12.68626476,20.37967732,31.16411115,48.95228461,97.90456921,195.8091384,267.3045794,379.0048704
72,73,CALLAHAN,04-1316,41.3111,-122.8044,32.05405783,84.50559893,85.35065492,87.05766802,102.3268809,151.0313416,238.4016271,332.2670915,474.7815557,1.261970781,3.326992084,3.360262005,3.427467245,4.028617358,5.946115811,9.385890831,13.08138156,18.69218723,198.3663217,599.7339881,304.2657533,479.5681129,822.5848565,1645.169713,3290.339426,3107.285991,4275.714253,7.809697705,23.61157434,11.97896666,18.88063436,32.38523057,64.77046114,129.5409223,122.3340942,168.3352068
73,74,CAMARILLO-HAUSER,93-0219,34.2278,-119.0264,28.73666891,40.68787469,45.06020275,58.219862,121.1115268,221.2544394,331.742723,503.3345625,618.7371897,1.131364918,1.60188483,1.77402373,2.292120551,4.768170346,8.710804701,13.06073713,19.81632136,24.35973188,162.9851537,242.7421318,284.7655016,390.8047352,910.6964302,1821.392861,3642.785721,3409.256911,4096.475654,6.416738334,9.556776843,11.21124022,15.3860132,35.85419017,71.70838033,143.4167607,134.222713,161.2785691
74,75,DOYLE,4-Apr,40.0244,-120.1044,23.27666753,37.31981064,40.72851436,55.64226549,97.43005538,159.0347325,184.5611655,211.1943205,382.0812356,0.916404233,1.469283883,1.603484817,2.190640374,3.835828952,6.261209941,7.266187618,8.314737028,15.04256833,112.1605175,212.0337497,230.5134472,334.5439348,575.8474855,1151.694971,2303.389942,1369.307587,2308.684373,4.415768406,8.347785421,9.075332569,13.17102105,22.67116085,45.34232169,90.68464339,53.90974754,90.89308555
75,76,DOYLE 4 SSE,6-Apr,39.9717,-120.0828,27.86821805,53.74848632,54.28597118,73.09018902,121.1314469,181.2034304,225.1748858,322.1471394,522.2806759,1.097173939,2.116082139,2.13724296,2.877566497,4.768954602,7.133993323,8.865152984,12.68295824,20.56223133,153.0846265,335.826837,315.244085,480.6221371,792.3426731,1584.685346,3169.370693,2104.143554,3109.013277,6.026953801,13.22152902,12.41118445,18.92213138,31.19459343,62.38918686,124.7783737,82.84029741,122.4020975
76,77,DRY CANYON RESERVOIR,97-0274,34.4676,-118.5178,29.91268512,35.71241832,57.21436529,73.84359142,124.0204883,203.4362433,377.7552064,472.5601487,560.0157432,1.177664769,1.406000721,2.252534067,2.907228009,4.88269639,8.009300917,14.87225222,18.60473026,22.04786391,187.191979,209.1650104,387.312209,527.7275745,939.1335922,1878.267184,3756.534369,3099.73236,3643.948292,7.369762951,8.234842929,15.24851217,20.77667616,36.97376347,73.94752694,147.8950539,122.0367071,143.4625312
77,78,DUDLEYS,Apr-39,37.75,-120.1,23.87794283,33.27658751,44.77703475,62.52058341,108.5585238,162.2845465,187.9728756,227.60481,322.3221602,0.940076489,1.31010187,1.762875384,2.461440292,4.27395763,6.389155374,7.400506913,8.960819291,12.68984883,105.9998642,178.5674584,277.8373348,449.9249858,886.1701811,1772.340362,3544.680724,2201.808697,3054.338586,4.173222999,7.030214899,10.93847775,17.71358212,34.88858981,69.77717961,139.5543592,86.68538177,120.2495506
78,79,EL MIRAGE,Apr-71,34.5892,-117.6303,16.86205199,26.74550541,29.9066348,43.91825436,78.66795632,134.8215165,174.688364,274.6254888,391.7711808,0.663860315,1.052972654,1.177426567,1.729065132,3.097163635,5.30793372,6.877494646,10.81202712,15.42406224,72.68434353,132.5819545,157.9978005,255.1900672,455.7765675,911.553135,1823.10627,1474.771783,1988.496553,2.861588328,5.219761986,6.220385845,10.04685304,17.94395935,35.8879187,71.7758374,58.06188122,78.28726588
79,80,ETIWANDA,Apr-95,34.1317,-117.5239,24.75084685,39.73707947,43.6460815,62.59944109,105.097409,184.7994969,307.254048,529.605578,733.8533676,0.974442789,1.564451948,1.718349665,2.464544925,4.137693268,7.275570744,12.09661606,20.85061331,28.89186487,132.181575,223.3489606,291.8763015,452.3820109,744.5220453,1489.044091,2978.088181,2986.696299,3934.971199,5.203999014,8.793266165,11.49119297,17.81031539,29.31189155,58.62378309,117.2475662,117.5864684,154.9201259
80,81,ETNA,Apr-99,41.4556,-122.8983,30.03665993,49.29647854,49.40617638,64.61741019,110.5486788,160.4818114,275.1004377,441.4723828,689.4536786,1.182545667,1.940806242,1.945125054,2.543992527,4.352310189,6.318181551,10.83072589,17.38080247,27.14384561,168.109416,355.9631172,324.986137,469.4124724,934.6785659,1869.357132,3738.714264,4255.738874,6260.909441,6.618480943,14.01429595,12.7947298,18.480806,36.79836874,73.59673747,147.1934749,167.5487746,246.4924977
81,82,FOLSOM,11-Apr,38.6833,-121.1833,29.74032967,36.57818132,50.44054345,63.02135853,80.44535929,129.1901051,237.1208754,371.0672675,513.7646727,1.170879121,1.440085879,1.985848167,2.481155848,3.16714013,5.08622461,9.335467535,14.60894754,20.22695562,166.0322629,208.4262168,344.9461639,476.3434991,619.1847708,1238.369542,2476.739083,3679.703548,5116.964384,6.536703265,8.205756567,13.58055764,18.75368107,24.37735318,48.75470636,97.50941273,144.8702184,201.4552907
82,83,FOLSOM DAM,13-Apr,38.7,-121.1667,29.74032967,36.57818132,50.44054345,63.02135853,80.44535929,129.1901051,237.1208754,371.0672675,513.7646727,1.170879121,1.440085879,1.985848167,2.481155848,3.16714013,5.08622461,9.335467535,14.60894754,20.22695562,166.0322629,208.4262168,344.9461639,476.3434991,619.1847708,1238.369542,2476.739083,3679.703548,5116.964384,6.536703265,8.205756567,13.58055764,18.75368107,24.37735318,48.75470636,97.50941273,144.8702184,201.4552907
83,84,FONTANA 5N (GETCHELL),79-2017,34.1796,-117.4448,24.75084685,39.73707947,43.6460815,62.59944109,105.097409,184.7994969,307.254048,529.605578,733.8533676,0.974442789,1.564451948,1.718349665,2.464544925,4.137693268,7.275570744,12.09661606,20.85061331,28.89186487,132.181575,223.3489606,291.8763015,452.3820109,744.5220453,1489.044091,2978.088181,2986.696299,3934.971199,5.203999014,8.793266165,11.49119297,17.81031539,29.31189155,58.62378309,117.2475662,117.5864684,154.9201259
84,85,FONTANA KAISER,20-Apr,34.0833,-117.5167,23.77971718,34.31736313,43.77717233,62.7072858,105.5930198,182.5158118,289.0200879,502.5897731,684.6539331,0.936209338,1.351077289,1.723510722,2.46879078,4.157205504,7.185661882,11.37874362,19.78699894,26.95487926,127.1427732,185.4239853,292.0391298,452.1008371,751.690597,1503.381194,3006.762388,2937.672383,3821.899638,5.005620992,7.3001569,11.49760353,17.79924556,29.59411799,59.18823599,118.376472,115.656393,150.4684897
85,86,FORESTHILL RANGER STN,Apr-34,39.01,-120.845,28.77791265,37.40203475,52.21534614,67.45452355,108.6419414,195.2107951,306.1536375,394.1663779,734.6497834,1.132988687,1.472521053,2.055722289,2.655689904,4.277241787,7.685464374,12.05329281,15.51836133,28.92321982,150.5800237,218.1869894,353.6262082,513.535127,956.1953645,1912.390729,3824.781458,4569.783478,7820.594317,5.928347391,8.590038952,13.92229166,20.21791839,37.64548679,75.29097358,150.5819472,179.9127354,307.897414
86,87,FORT BIDWELL,Apr-57,41.52,-120.09,11.96334528,17.38177092,19.77739386,26.75210102,50.01509759,64.36769318,81.46781321,92.63496917,152.1789934,0.470997846,0.68432169,0.778637554,1.053232324,1.96909833,2.534161149,3.207394221,3.64704603,5.991298953,42.22574472,68.92259951,87.21418861,130.554025,287.9630547,575.9261095,1151.852219,589.1806011,967.3254296,1.662430895,2.71348817,3.433629473,5.139922242,11.33712814,22.67425628,45.34851256,23.19608666,38.08367833
87,88,FORT BRAGG 5 N,Apr-61,39.5092,-123.7567,45.88366164,71.26621937,71.97888156,85.97785222,144.0349895,248.5816452,390.8916743,725.602328,916.4225185,1.806443372,2.805756668,2.833814235,3.384954812,5.670668878,9.786678945,15.389436,28.56702079,36.07962671,356.8021196,572.9506297,568.3419776,781.3062299,1451.542898,2903.085796,5806.171593,7840.244982,9691.202148,14.04732754,22.55711141,22.37566841,30.76008779,57.1473582,114.2947164,228.5894328,308.6710623,381.5433916
88,89,FORT DICK,Apr-73,41.8667,-124.15,49.95041561,94.5749733,95.52072303,99.34095943,153.0810409,232.9689585,468.79847,731.477598,914.645155,1.966551796,3.723424146,3.760658387,3.911061395,6.026812634,9.17200624,18.45663268,28.79833063,36.00965177,402.6796685,832.179793,710.608957,974.6137119,1667.502065,3335.004131,6670.008262,8929.288625,11006.57081,15.85353025,32.76298398,27.97673059,38.37061858,65.64968761,131.2993752,262.5987505,351.5467963,433.3295595
89,90,FORT JONES 6 ESE,Apr-76,41.5833,-122.7167,22.55714292,33.68373146,37.56784438,54.1180226,104.8592385,161.740067,263.410845,407.0917732,537.574485,0.888076493,1.32613116,1.479048991,2.130630811,4.128316476,6.367719173,10.37050571,16.02723517,21.1643498,102.8406273,175.169969,219.6850524,370.4548026,840.8299332,1681.659866,3363.319733,3448.911918,4578.944561,4.048843593,6.896455473,8.649017812,14.58483475,33.10354068,66.20708136,132.4141627,135.7839338,180.2734079
90,91,FORT JONES RANGER STN,Apr-82,41.6,-122.8478,30.6855606,47.63103701,49.64349933,67.64643989,124.8215984,177.7609142,292.2097084,501.6224189,716.4836984,1.208092937,1.875237678,1.954468478,2.663245665,4.914236157,6.998461189,11.50431923,19.74891413,28.20801962,173.9085207,346.5183434,326.7626208,508.0168469,1057.079734,2114.159467,4228.318935,4619.31143,6408.400001,6.846792154,13.64245446,12.86467011,20.00066327,41.61731235,83.2346247,166.4692494,181.8626547,252.2992126
91,92,FORT ROSS,Apr-91,38.515,-123.2447,38.09379893,52.8538318,71.71436344,96.99442825,147.8241054,257.6050402,526.0929275,739.1002585,1021.112693,1.499755863,2.08085952,2.823400135,3.818678278,5.819846669,10.14193072,20.71231998,29.09843537,40.20128713,249.8517269,392.3257837,589.2305802,884.8105447,1473.37365,2946.747301,5893.494601,7202.672911,9598.226914,9.836682161,15.44589699,23.19805434,34.83506082,58.00683663,116.0136733,232.0273465,283.5697996,377.8829494
92,93,FOUR TREES FOR,94-0063,39.8277,-121.3063,30.64329681,48.22940641,53.88731097,72.57410241,121.2436827,266.4436455,459.7891258,735.1548663,1022.871116,1.206429008,1.898795528,2.121547676,2.857248126,4.773373335,10.4899073,18.10193409,28.94310497,40.27051638,155.3038374,322.2811039,372.610956,593.1694567,1160.401635,2320.80327,4641.606541,7545.345301,10036.03418,6.114324309,12.68823244,14.66972268,23.35312822,45.68510375,91.3702075,182.740415,297.0608386,395.119456
93,94,FRAZIER PARK 9 SW,19-Apr,34.7333,-119.1039,28.07447227,38.56410448,50.62597543,71.16394532,94.88302976,150.5928232,237.271605,384.3247338,465.7295257,1.105294184,1.51827183,1.993148639,2.801730131,3.735552353,5.928851307,9.341401772,15.13089503,18.3358081,165.9298738,221.9315741,354.6769755,537.3353739,726.2585383,1452.517077,2905.034153,2763.703323,3296.942886,6.532672196,8.737463548,13.96366045,21.15493598,28.59285584,57.18571168,114.3714234,108.8072175,129.800901
94,95,FRENCH GULCH,Apr-42,40.7,-122.6333,32.03903422,45.31184159,55.98834395,81.34234503,153.2069316,239.6580431,479.8756486,837.5889597,1084.620835,1.2613793,1.783930771,2.20426551,3.202454529,6.031768961,9.435356028,18.89274207,32.9759433,42.70160768,213.7543626,307.3654708,418.1585937,692.693737,1404.296368,2808.592737,5617.185473,7296.631488,9266.546995,8.415526088,12.10100279,16.46293676,27.27140697,55.2872586,110.5745172,221.1490344,287.2689562,364.8246849
95,96,FRENCHMAN DAM FRD,94-0064,39.8997,-120.183,31.50553362,75.15797623,75.90955599,77.42774711,127.5736555,199.501331,302.7472726,383.0692786,584.7698441,1.240375339,2.958975442,2.988565196,3.0483365,5.022584862,7.85438311,11.91918396,15.08146766,23.02243481,179.0546465,489.8364745,280.4543348,452.3256485,906.2248526,1812.449705,3624.89941,2813.83309,3945.166996,7.049395531,19.28490057,11.04150924,17.8080964,35.6781438,71.3562876,142.7125752,110.7808303,155.3215353
96,97,FRESNO YOSEMITE INTL,Apr-57,36.78,-119.7194,26.40318793,40.88073833,41.83598167,54.41332514,77.84658029,109.7831683,174.0088907,236.1781435,258.6567785,1.039495588,1.609477887,1.647085893,2.142256895,3.064825996,4.32217198,6.850743728,9.298352106,10.18333774,143.3237397,261.2638842,246.9223337,356.0564006,588.1556498,1176.3113,2352.622599,1973.328628,2226.690046,5.642666917,10.28597969,9.721351719,14.01796853,23.15573425,46.31146849,92.62293698,77.69010346,87.66496245
97,98,FRIANT GOVERNMENT CAMP,Apr-61,36.9969,-119.7072,28.98530148,37.02636481,53.6104089,72.03905375,113.7438234,142.8468121,188.0023206,231.177391,257.069147,1.141153602,1.457730898,2.11064602,2.836183219,4.478103283,5.62389024,7.401666165,9.101472087,10.12083256,164.9560203,205.5232516,354.9778244,524.5533363,906.5389154,1813.077831,3626.155662,2097.155693,2399.821602,6.494331508,8.091466597,13.9755049,20.65170615,35.69050848,71.38101696,142.7620339,82.56518475,94.48116543
98,99,FULLERTON HILLCREST RE,Apr-88,33.8833,-117.9167,21.67338821,25.53484073,39.32155646,60.55281627,119.7033022,212.0267713,349.3745642,506.9821113,650.3794646,0.853283,1.00530869,1.548092774,2.383969144,4.712728433,8.347510681,13.7549041,19.95992564,25.60549073,118.2290046,132.5129541,244.6201576,412.4172906,809.7227068,1619.445414,3238.890827,2999.469907,3691.045845,4.654685222,5.217045435,9.630714867,16.23690121,31.87884672,63.75769345,127.5153869,118.0893664,145.3167655
99,100,GARBERVILLE,20-Apr,40.1,-123.8,49.43209943,79.63661877,97.13428529,128.5646163,162.8328421,192.7613273,268.0023463,624.438128,941.7895008,1.946145647,3.135299952,3.82418446,5.061599067,6.410741815,7.589028634,10.55127348,24.58417827,37.0783268,400.9661196,682.2173817,881.2153649,1287.506574,1724.203689,3448.407377,6896.814754,7278.482853,10569.54282,15.7860677,26.85895204,34.6935183,50.68923522,67.88203498,135.76407,271.5281399,286.554443,416.1237329
100,101,GARDEN VALLEY 2 S,Apr-38,38.8333,-120.85,34.08656133,67.86943649,68.54813085,69.91909347,96.22673144,178.5912161,368.0513791,511.1656888,697.6152123,1.341990604,2.672025059,2.698745309,2.752720215,3.788453994,7.03115024,14.49021178,20.12463342,27.46516584,230.9324887,556.9693983,327.2627348,455.3725741,803.0959077,1606.191815,3212.383631,5617.395779,7590.492339,9.091830263,21.92792907,12.88435964,17.9280541,31.61794912,63.23589825,126.4717965,221.1573141,298.8382811
101,102,GARROD RANCH,83-6026,37.276,-122.0588,29.51188444,51.84603714,54.66541595,77.27113208,135.8182266,211.1510005,281.945936,430.5336144,463.6641864,1.161885214,2.041182565,2.15218173,3.042170554,5.347174276,8.313031516,11.1002337,16.9501423,18.25449553,166.0036995,330.2441472,386.8998253,610.765817,1094.880974,2189.761947,4379.523894,3588.619662,3923.263708,6.535578719,13.00173808,15.23227658,24.04589831,43.10555014,86.21110028,172.4222006,141.2842387,154.4592011
102,103,GASQUET RS,Apr-57,41.8453,-123.9647,35.16123051,52.63856296,56.59300576,71.51021252,124.993096,183.7285518,308.7863163,539.3498254,844.3972995,1.384300414,2.072384369,2.228071093,2.815362698,4.920988031,7.233407551,12.15694159,21.23424509,33.24398817,232.9999471,360.5823259,428.1265075,576.4717544,1187.88466,2375.769319,4751.538638,6437.196869,9522.070631,9.173226263,14.19615456,16.85537431,22.69573836,46.76711258,93.53422516,187.0684503,253.4329476,374.8846705
103,104,GEM LAKE,Apr-69,37.7519,-119.1403,23.01988041,47.49213433,47.96705568,48.92639679,79.89377769,133.373773,220.3711193,322.9938322,432.1611942,0.906294504,1.869769068,1.888466759,1.926236094,3.145424319,5.250935945,8.676028319,12.71629261,17.01422024,109.783408,287.1906264,160.2656851,249.5924144,531.9660787,1063.932157,2127.864315,2248.448488,2896.644562,4.322181418,11.30671757,6.30967264,9.826473006,20.9435464,41.88709281,83.77418562,88.52159403,114.0411245
104,105,GEORGETOWN,Apr-81,38.9167,-120.8333,35.93055766,71.47318909,72.18792098,73.6316794,88.75154142,169.5922102,381.6059338,501.8091064,735.0579058,1.414588884,2.813905082,2.842044133,2.898885016,3.494155174,6.676858669,15.02385566,19.75626403,28.93928763,285.4268698,609.3266613,380.642003,508.6457511,705.59994,1411.19988,2822.39976,5614.609843,7861.482423,11.23727834,23.98923863,14.98590563,20.02542327,27.7795252,55.55905039,111.1181008,221.0476316,309.507182
105,106,GEORGETOWN R S,Apr-84,38.9331,-120.8008,28.77791265,37.40203475,52.21534614,67.45452355,108.6419414,195.2107951,306.1536375,394.1663779,734.6497834,1.132988687,1.472521053,2.055722289,2.655689904,4.277241787,7.685464374,12.05329281,15.51836133,28.92321982,150.5800237,218.1869894,353.6262082,513.535127,956.1953645,1912.390729,3824.781458,4569.783478,7820.594317,5.928347391,8.590038952,13.92229166,20.21791839,37.64548679,75.29097358,150.5819472,179.9127354,307.897414
106,107,GIANT FOREST,Apr-97,36.5667,-118.7667,22.21693092,48.35966661,48.84326327,49.82012854,65.42594186,137.5242958,257.0632824,443.5503406,612.082936,0.87468232,1.903923882,1.922963121,1.961422383,2.575824483,5.414342354,10.12060167,17.46261183,24.09775339,102.1715315,311.5801759,162.5388264,190.5884752,433.0870805,866.174161,1732.348322,2966.882508,3923.804735,4.022501239,12.26693606,6.399166394,7.503483275,17.05067246,34.10134492,68.20268984,116.806398,154.4805014
107,108,GIANT FOREST (GNF),72-0014,36.5629,-118.7703,22.21693092,48.35966661,48.84326327,49.82012854,65.42594186,137.5242958,257.0632824,443.5503406,612.082936,0.87468232,1.903923882,1.922963121,1.961422383,2.575824483,5.414342354,10.12060167,17.46261183,24.09775339,102.1715315,311.5801759,162.5388264,190.5884752,433.0870805,866.174161,1732.348322,2966.882508,3923.804735,4.022501239,12.26693606,6.399166394,7.503483275,17.05067246,34.10134492,68.20268984,116.806398,154.4805014
108,109,GIBRALTAR DAM,80-0230,34.5233,-119.6819,26.20815537,35.61148256,50.85972344,67.97430034,111.8146203,208.4566732,319.3904291,489.8342533,589.3200403,1.031817141,1.402026872,2.002351317,2.676153557,4.402150406,8.206955638,12.57442634,19.28481312,23.20157639,138.4561894,202.2815853,336.7384402,488.5372061,873.8018453,1747.603691,3495.207381,3511.170966,4065.904924,5.45103108,7.963841939,13.25741891,19.23374827,34.40164745,68.8032949,137.6065898,138.2350774,160.074997
109,110,GIBRALTAR DAM 2,2-Apr,34.5225,-119.6822,26.20815537,35.61148256,50.85972344,67.97430034,111.8146203,208.4566732,319.3904291,489.8342533,589.3200403,1.031817141,1.402026872,2.002351317,2.676153557,4.402150406,8.206955638,12.57442634,19.28481312,23.20157639,138.4561894,202.2815853,336.7384402,488.5372061,873.8018453,1747.603691,3495.207381,3511.170966,4065.904924,5.45103108,7.963841939,13.25741891,19.23374827,34.40164745,68.8032949,137.6065898,138.2350774,160.074997
110,111,GILLESPIE FIELD,92-1170,32.8167,-116.9667,21.05271398,28.37009437,42.64873969,63.96187583,133.7701587,177.9618215,252.8528884,296.3910605,359.2569094,0.828847007,1.116932849,1.67908424,2.518184088,5.266541681,7.006370925,9.954838126,11.66893939,14.14397281,103.3931072,144.4077063,258.8586312,420.6731959,902.057639,1804.115278,3608.230556,2118.127067,2437.579096,4.070594772,5.685342769,10.19128469,16.56193685,35.51408028,71.02816055,142.0563211,83.3908294,95.96768095
111,112,GILROY,17-Apr,37.0067,-121.5633,24.41634469,34.2461249,45.2248269,61.85317211,102.6965408,167.210619,257.2401392,309.319781,371.4366285,0.961273413,1.348272634,1.780504996,2.435164256,4.043170898,6.583095236,10.12756454,12.17794413,14.62348931,133.0694515,195.9965033,302.2032773,461.368058,874.9921855,1749.984371,3499.968742,2616.294082,3112.832975,5.238954785,7.716397767,11.89776682,18.16409677,34.44851124,68.89702248,137.794045,103.003704,122.5524793
112,113,GILROY 8 NE,19-Apr,37.0328,-121.4317,24.85890099,32.26698064,45.82938835,58.70089592,78.33091375,122.8182639,204.51732,275.8125866,360.3275906,0.978696889,1.270353569,1.804306628,2.311058894,3.083894242,4.83536472,8.051862992,10.85876325,14.18612561,123.3064392,169.4325519,304.5058222,420.222927,576.11589,1152.23178,2304.46356,2331.413268,2890.309067,4.85458422,6.670572908,11.9884182,16.54420973,22.68172795,45.36345591,90.72691181,91.78792392,113.7916955
113,114,GLEN ANNIE CANYON,80-0376,34.45,-119.8667,31.00788991,37.89723579,53.09596137,66.15020646,90.59697335,167.4522641,283.9785599,438.0048699,503.0124861,1.220783067,1.492017157,2.09039218,2.604338837,3.566809974,6.592608823,11.18025826,17.24428622,19.80364119,180.2609771,218.3829197,363.1717732,475.8638157,675.2890669,1350.578134,2701.156268,3137.281103,3526.107026,7.096888861,8.597752745,14.29810131,18.7347959,26.58618374,53.17236747,106.3447349,123.5150041,138.8231113
114,115,GLENDALE-JACKSON,97-0351,34.165,-118.2503,23.89207452,32.05214386,45.52931104,66.53938601,131.1345684,213.2916325,309.5520755,450.0893174,553.6480787,0.940632855,1.261895428,1.792492561,2.619660867,5.162778283,8.397308366,12.18708959,17.72005187,21.79716845,119.2620688,179.9417522,284.3595625,460.1306308,938.5538806,1877.107761,3754.215522,2969.029963,3578.20217,4.69535704,7.084320952,11.19525836,18.11537917,36.95094018,73.90188036,147.8037607,116.8909434,140.8741012
115,116,GLENDORA IRRIGATING COMPA,97-0440,34.1339,-117.8515,25.93123142,33.35534565,48.06597348,69.01191077,117.1718888,219.9071712,302.4907689,517.175576,663.8808322,1.020914623,1.313202585,1.892361161,2.717004361,4.613066488,8.657762646,11.90908539,20.36124315,26.13704064,147.8012024,191.7586038,340.0918546,527.8814538,884.0674509,1768.134902,3536.269804,3122.283027,3823.647695,5.818944975,7.54955133,13.38944309,20.7827344,34.80580515,69.61161031,139.2232206,122.9245286,150.5373108
116,117,GLENDORA-CITY HALL,97-0441,34.1358,-117.8644,25.93123142,33.35534565,48.06597348,69.01191077,117.1718888,219.9071712,302.4907689,517.175576,663.8808322,1.020914623,1.313202585,1.892361161,2.717004361,4.613066488,8.657762646,11.90908539,20.36124315,26.13704064,147.8012024,191.7586038,340.0918546,527.8814538,884.0674509,1768.134902,3536.269804,3122.283027,3823.647695,5.818944975,7.54955133,13.38944309,20.7827344,34.80580515,69.61161031,139.2232206,122.9245286,150.5373108
117,118,GLENDORA-ENGLEWILD RANCH,97-0162,34.1561,-117.8492,25.93123142,33.35534565,48.06597348,69.01191077,117.1718888,219.9071712,302.4907689,517.175576,663.8808322,1.020914623,1.313202585,1.892361161,2.717004361,4.613066488,8.657762646,11.90908539,20.36124315,26.13704064,147.8012024,191.7586038,340.0918546,527.8814538,884.0674509,1768.134902,3536.269804,3122.283027,3823.647695,5.818944975,7.54955133,13.38944309,20.7827344,34.80580515,69.61161031,139.2232206,122.9245286,150.5373108
118,119,GLENDORA-WEST,97-1171,34.1397,-117.8592,25.93123142,33.35534565,48.06597348,69.01191077,117.1718888,219.9071712,302.4907689,517.175576,663.8808322,1.020914623,1.313202585,1.892361161,2.717004361,4.613066488,8.657762646,11.90908539,20.36124315,26.13704064,147.8012024,191.7586038,340.0918546,527.8814538,884.0674509,1768.134902,3536.269804,3122.283027,3823.647695,5.818944975,7.54955133,13.38944309,20.7827344,34.80580515,69.61161031,139.2232206,122.9245286,150.5373108
119,120,GLENNVILLE,Apr-63,35.7269,-118.7006,18.93000173,24.79424831,39.2762209,56.61287202,88.69913182,105.6794729,113.4288932,166.4138823,229.4948575,0.745275659,0.976151508,1.546307909,2.228853229,3.492091804,4.160609169,4.465704457,6.55172765,9.03523061,92.77627125,121.20061,237.0253786,374.2166946,631.5959751,1263.19195,2526.3839,1231.129014,1699.824988,3.652609104,4.771677558,9.331707821,14.73294073,24.86598327,49.73196654,99.46393308,48.46964624,66.9222436
120,121,GLENNVILLE FULTON R S,Apr-65,35.725,-118.6797,18.93000173,24.79424831,39.2762209,56.61287202,88.69913182,105.6794729,113.4288932,166.4138823,229.4948575,0.745275659,0.976151508,1.546307909,2.228853229,3.492091804,4.160609169,4.465704457,6.55172765,9.03523061,92.77627125,121.20061,237.0253786,374.2166946,631.5959751,1263.19195,2526.3839,1231.129014,1699.824988,3.652609104,4.771677558,9.331707821,14.73294073,24.86598327,49.73196654,99.46393308,48.46964624,66.9222436
121,122,GLENNVILLE MORROW RCH,Apr-68,35.7,-118.7333,18.93000173,24.79424831,39.2762209,56.61287202,88.69913182,105.6794729,113.4288932,166.4138823,229.4948575,0.745275659,0.976151508,1.546307909,2.228853229,3.492091804,4.160609169,4.465704457,6.55172765,9.03523061,92.77627125,121.20061,237.0253786,374.2166946,631.5959751,1263.19195,2526.3839,1231.129014,1699.824988,3.652609104,4.771677558,9.331707821,14.73294073,24.86598327,49.73196654,99.46393308,48.46964624,66.9222436
122,123,GOLD ROCK RANCH,Apr-89,32.8833,-114.8667,9.785478923,11.30556962,17.18538858,20.91310084,30.41052914,39.61654122,54.25758944,57.39128062,59.2447095,0.385255076,0.445101166,0.676590102,0.823350427,1.197264927,1.559706347,2.136125569,2.259499237,2.332468878,40.74725618,47.78036344,83.96069709,101.031485,146.3229293,292.6458586,585.2917172,323.0145785,337.5178691,1.604222684,1.881116671,3.305539255,3.977617519,5.760745248,11.5214905,23.04298099,12.71710939,13.28810508
123,124,GOLD RUN 2 SW,Apr-91,39.165,-120.8567,29.05969365,35.76121448,56.61426668,76.68225884,126.7722059,212.2591548,360.2459123,474.1406925,766.101736,1.144082427,1.40792183,2.228908137,3.018986569,4.991031728,8.356659638,14.18290993,18.6669564,30.16148567,158.3846922,196.2534264,412.8005844,615.3571227,1150.394545,2300.78909,4601.578179,5217.587723,8015.071001,6.235617804,7.726512852,16.25199151,24.22665837,45.29112381,90.58224762,181.1644952,205.4168395,315.5539764
124,125,GOLDSTONE ECHO NO 2,Apr-98,35.2814,-116.7844,8.778872563,11.24590083,17.28575167,24.32671851,35.6431223,48.09457005,56.32007403,83.26449385,128.9038976,0.345624904,0.442752001,0.680541404,0.957744823,1.403272531,1.89348701,2.217325749,3.278129679,5.074956598,31.3144662,42.96707023,76.91031874,117.5279948,178.1070555,356.2141109,712.4282218,423.2387396,641.4528789,1.232853,1.691616938,3.027965305,4.627086409,7.012088797,14.02417759,28.04835519,16.6629425,25.25405035
125,126,GOLETA FIRE STATION #14,80-0440,34.4431,-119.8556,28.17814976,40.9428836,48.90425487,65.6427283,127.2431431,216.4635558,321.7956316,478.2585586,598.4194093,1.109375975,1.611924551,1.925364365,2.584359382,5.009572563,8.522187236,12.66911935,18.82907711,23.55981926,148.0590231,255.1545777,334.4571049,515.7959749,1045.079566,2090.159133,4180.318265,3478.281491,4144.231372,5.829095396,10.04545582,13.16760255,20.30692815,41.14486482,82.28972964,164.5794593,136.9402162,163.1587154
126,127,GOLETA WATER DISTRICT,80-0334,34.4333,-119.8,28.17814976,40.9428836,48.90425487,65.6427283,127.2431431,216.4635558,321.7956316,478.2585586,598.4194093,1.109375975,1.611924551,1.925364365,2.584359382,5.009572563,8.522187236,12.66911935,18.82907711,23.55981926,148.0590231,255.1545777,334.4571049,515.7959749,1045.079566,2090.159133,4180.318265,3478.281491,4144.231372,5.829095396,10.04545582,13.16760255,20.30692815,41.14486482,82.28972964,164.5794593,136.9402162,163.1587154
127,128,GONZALES 9 ENE,2-Apr,36.5333,-121.2833,30.15698935,41.03590196,55.92295619,74.79743261,105.8953464,165.319752,311.9179296,438.5816877,579.7927884,1.187283045,1.615586691,2.201691189,2.944780811,4.169108126,6.508651654,12.28023345,17.26699558,22.82648773,190.1439443,244.3655502,388.1648152,555.1957085,815.7429126,1631.485825,3262.97165,3370.744888,4259.842434,7.485982058,9.620690955,15.28207934,21.85809876,32.1158627,64.2317254,128.4634508,132.7064917,167.7103321
128,129,GORMAN,97-0458,34.7972,-118.8519,20.26240453,44.03179793,44.47211591,44.63547817,71.38500395,107.9066803,135.6295075,198.2375369,256.0433635,0.797732462,1.733535352,1.750870705,1.75730229,2.810433226,4.2482945,5.33974439,7.804627437,10.08044738,97.29900114,235.3875591,179.5819587,265.9729163,450.377916,900.755832,1801.511664,1365.831496,1755.512849,3.830669336,9.267226738,7.070155853,10.47137466,17.73141401,35.46282803,70.92565606,53.77289354,69.11467909
129,130,GORMAN - SHERIFF,97-0460,34.7846,-118.8508,20.26240453,44.03179793,44.47211591,44.63547817,71.38500395,107.9066803,135.6295075,198.2375369,256.0433635,0.797732462,1.733535352,1.750870705,1.75730229,2.810433226,4.2482945,5.33974439,7.804627437,10.08044738,97.29900114,235.3875591,179.5819587,265.9729163,450.377916,900.755832,1801.511664,1365.831496,1755.512849,3.830669336,9.267226738,7.070155853,10.47137466,17.73141401,35.46282803,70.92565606,53.77289354,69.11467909
130,131,GRANT GROVE,Apr-51,36.7394,-118.9631,23.0572036,33.84146945,40.79376438,53.13738766,80.18128071,107.4462483,178.0118837,356.8050169,473.0929417,0.907763921,1.332341317,1.606053716,2.092023136,3.156743335,4.230167256,7.008341878,14.04744161,18.62570637,103.2307223,185.4072056,264.2781297,373.1161804,597.8905702,1195.78114,2391.562281,2784.181966,3506.566402,4.064201667,7.299496282,10.40465078,14.6896134,23.53899883,47.07799766,94.15599531,109.6134632,138.0537954
131,132,GRASS VALLEY,Apr-71,39.2167,-121.0667,34.35850198,46.44505387,65.93651034,86.89900908,132.6389675,205.7084797,364.4996754,528.6438258,804.9864082,1.352696928,1.828545428,2.595925604,3.42122083,5.222006594,8.098759043,14.35038092,20.81274905,31.69237828,230.5422554,318.8116631,536.9722981,773.347626,1288.525627,2577.051255,5154.102509,5740.322985,8348.696651,9.076466749,12.55164028,21.14064166,30.44675693,50.72935541,101.4587108,202.9174216,225.9969679,328.6888445
132,133,GRASS VALLEY NO 2,Apr-73,39.2042,-121.0681,34.35850198,46.44505387,65.93651034,86.89900908,132.6389675,205.7084797,364.4996754,528.6438258,804.9864082,1.352696928,1.828545428,2.595925604,3.42122083,5.222006594,8.098759043,14.35038092,20.81274905,31.69237828,230.5422554,318.8116631,536.9722981,773.347626,1288.525627,2577.051255,5154.102509,5740.322985,8348.696651,9.076466749,12.55164028,21.14064166,30.44675693,50.72935541,101.4587108,202.9174216,225.9969679,328.6888445
133,134,GRATON,Apr-78,38.4306,-122.8647,37.18930517,48.8061741,74.13187523,104.8783902,158.4985833,299.2968793,529.1449956,790.8475287,1168.257624,1.464145873,1.921502917,2.918577765,4.12907048,6.240101705,11.7833417,20.83248014,31.13572948,45.99439465,252.1797308,334.9092992,614.9720035,979.1105033,1582.277683,3164.555366,6329.110732,7413.733878,10316.30971,9.92833586,13.18540548,24.2114962,38.54765761,62.29439697,124.5887939,249.1775879,291.8792865,406.1539258
134,135,LOBDELL LAKE,98-0036,38.4413,-119.3667,22.04155792,37.24134915,37.61376265,39.83580052,59.30510125,70.49313838,95.73368973,108.0676983,125.5211498,0.867777871,1.466194848,1.480856797,1.568338603,2.334846506,2.775320409,3.769042903,4.254633791,4.941777551,119.831309,210.1459764,169.1523478,218.1515844,345.3301366,690.6602731,1381.320546,737.1408682,879.2359579,4.717768072,8.273463638,6.659541254,8.588645056,13.59567467,27.19134934,54.38269867,29.02129402,34.61558889
135,136,LOCKWOOD 1 N,17-Apr,35.9667,-121.0833,30.68675497,42.98684292,55.32852797,68.92739093,93.01044896,127.6362826,213.3356055,382.1910184,497.9952151,1.208139959,1.692395391,2.178288503,2.713676808,3.661828699,5.025050496,8.399039587,15.04689049,19.60611083,173.3528533,259.3500531,360.5235787,482.1326277,707.793407,1415.586814,2831.173628,3058.779979,3825.789806,6.824915484,10.21063201,14.19384168,18.98159952,27.86588216,55.73176433,111.4635287,120.4244086,150.6216459
136,137,LOCKWOOD MESA,23-Apr,32.9833,-117.25,27.85780406,39.42157864,54.26881369,71.30472156,135.5614354,161.4216339,201.8905428,278.5950177,380.7013292,1.096763939,1.552030655,2.136567468,2.807272502,5.337064386,6.355182437,7.948446567,10.96830778,14.98824131,158.3077053,226.7038259,347.6452721,481.5087822,915.5594726,1831.118945,3662.23789,1920.828682,2440.249391,6.232586823,8.925347478,13.68682174,18.95703867,36.04564853,72.09129706,144.1825941,75.62317646,96.07281067
137,138,LOCKWOOD VALLEY-COUNTY YA,93-0209,34.7326,-119.1032,28.07447227,38.56410448,50.62597543,71.16394532,94.88302976,150.5928232,237.271605,384.3247338,465.7295257,1.105294184,1.51827183,1.993148639,2.801730131,3.735552353,5.928851307,9.341401772,15.13089503,18.3358081,165.9298738,221.9315741,354.6769755,537.3353739,726.2585383,1452.517077,2905.034153,2763.703323,3296.942886,6.532672196,8.737463548,13.96366045,21.15493598,28.59285584,57.18571168,114.3714234,108.8072175,129.800901
138,139,LODGEPOLE,26-Apr,36.6044,-118.7325,22.21693092,48.35966661,48.84326327,49.82012854,65.42594186,137.5242958,257.0632824,443.5503406,612.082936,0.87468232,1.903923882,1.922963121,1.961422383,2.575824483,5.414342354,10.12060167,17.46261183,24.09775339,102.1715315,311.5801759,162.5388264,190.5884752,433.0870805,866.174161,1732.348322,2966.882508,3923.804735,4.022501239,12.26693606,6.399166394,7.503483275,17.05067246,34.10134492,68.20268984,116.806398,154.4805014
139,140,LODI,Apr-32,38.1061,-121.2878,22.14419625,31.34437459,37.74572254,48.9025836,60.81354638,86.84843356,119.2724984,199.9403878,265.1289418,0.87181875,1.234030496,1.486052069,1.925298567,2.394234109,3.419229668,4.695767654,7.871668811,10.43814731,119.5960054,170.4040383,242.0881419,331.9483038,405.9366301,811.8732602,1623.74652,1806.713053,2506.648375,4.708504151,6.708820407,9.531029207,13.06883086,15.98175709,31.96351418,63.92702837,71.13043517,98.68694392
140,141,LOG SPRINGS (LGS),72-0019,39.8262,-122.793,32.83158278,46.01983735,65.48069493,90.98214325,161.5657779,285.8572057,461.5285078,715.997481,1157.492869,1.292581999,1.81180462,2.577980115,3.581974144,6.360857398,11.2542207,18.17041369,28.1888772,45.57058539,226.7723644,305.8165137,558.75279,864.7371572,1576.219395,3152.438791,6304.877582,7122.889673,10392.08774,8.928045844,12.04002022,21.99814134,34.04476997,62.05588171,124.1117634,248.2235268,280.4287273,409.1373124
141,142,LOMA LINDA FIRE DEPARTMEN,79-3355,34.0442,-117.2471,21.09740206,32.10316926,38.70221731,57.26864812,114.5761777,165.5349275,292.9589484,562.790484,726.2619886,0.83060638,1.263904302,1.523709343,2.254671186,4.510873138,6.51712313,11.53381687,22.15710567,28.59299168,102.7596095,167.0263194,248.247018,410.4745068,794.8716225,1589.743245,3179.48649,2923.929261,3687.174494,4.045653916,6.575839346,9.773504646,16.16041365,31.29415837,62.58831674,125.1766335,115.1153253,145.1643502
142,143,LOMPOC,Apr-64,34.6536,-120.4511,29.84766414,51.17549571,53.60771252,82.62329972,146.5461131,172.9869293,249.1321377,367.9119192,475.7001429,1.175104887,2.014783296,2.110539863,3.252885816,5.769532012,6.810509028,9.808351878,14.48472123,18.72835208,178.281349,320.3587131,337.6793683,563.2566085,1023.898561,2047.797123,4095.594245,2683.285158,3382.17628,7.018950747,12.61254776,13.29446332,22.17545703,40.31096698,80.62193396,161.2438679,105.641148,133.1565464
143,144,LOMPOC - CALTRANS MAINT.,80-0385,34.6631,-120.4739,29.84766414,51.17549571,53.60771252,82.62329972,146.5461131,172.9869293,249.1321377,367.9119192,475.7001429,1.175104887,2.014783296,2.110539863,3.252885816,5.769532012,6.810509028,9.808351878,14.48472123,18.72835208,178.281349,320.3587131,337.6793683,563.2566085,1023.898561,2047.797123,4095.594245,2683.285158,3382.17628,7.018950747,12.61254776,13.29446332,22.17545703,40.31096698,80.62193396,161.2438679,105.641148,133.1565464
144,145,LOMPOC - MIGUELITO CANYON,80-0251,34.5861,-120.495,29.84766414,51.17549571,53.60771252,82.62329972,146.5461131,172.9869293,249.1321377,367.9119192,475.7001429,1.175104887,2.014783296,2.110539863,3.252885816,5.769532012,6.810509028,9.808351878,14.48472123,18.72835208,178.281349,320.3587131,337.6793683,563.2566085,1023.898561,2047.797123,4095.594245,2683.285158,3382.17628,7.018950747,12.61254776,13.29446332,22.17545703,40.31096698,80.62193396,161.2438679,105.641148,133.1565464
145,146,LOMPOC FLOOD CONTROL,80-0439,34.6672,-120.4672,29.84766414,51.17549571,53.60771252,82.62329972,146.5461131,172.9869293,249.1321377,367.9119192,475.7001429,1.175104887,2.014783296,2.110539863,3.252885816,5.769532012,6.810509028,9.808351878,14.48472123,18.72835208,178.281349,320.3587131,337.6793683,563.2566085,1023.898561,2047.797123,4095.594245,2683.285158,3382.17628,7.018950747,12.61254776,13.29446332,22.17545703,40.31096698,80.62193396,161.2438679,105.641148,133.1565464
146,147,LOMPOC HILLS,80-0411,34.7333,-120.4167,27.44903642,35.80313161,57.23279186,79.29716253,123.4018334,164.581549,249.715928,382.6352872,446.3727303,1.080670725,1.409572111,2.253259522,3.121935533,4.858339898,6.479588543,9.831335748,15.06438139,17.57372954,159.451608,205.2503652,373.0590772,555.268683,890.5393414,1781.078683,3562.157366,2810.807339,3260.859987,6.27762236,8.08072304,14.68736524,21.86097177,35.06060399,70.12120799,140.242416,110.6617062,128.3803144
147,148,LONE PINE COTTONWOOD PH,Apr-67,36.4431,-118.0433,18.79174721,38.25732191,38.63989513,39.41269304,61.06532153,91.11760013,185.7568905,320.0193703,386.6627147,0.739832567,1.506193776,1.521255714,1.551680828,2.404146517,3.587307092,7.313263406,12.59918781,15.22294152,88.99027871,228.6819086,131.3799997,194.0670985,386.5789653,773.1579305,1546.315861,1798.644251,2184.6787,3.50355428,9.003224746,5.172440932,7.640436948,15.2196443,30.4392886,60.87857721,70.81276578,86.01097243
148,149,LONG BARN EXPERMENT STN,Apr-78,38.1833,-120.0167,25.44676738,39.67168771,46.54544859,59.72783858,88.06660342,147.8103115,228.0499767,278.5066547,467.9679611,1.001841235,1.561877469,1.832497976,2.351489708,3.467189111,5.819303602,8.978345539,10.96482893,18.42393548,121.5410306,234.0164504,298.1993637,419.3015113,674.5150183,1349.030037,2698.060073,2760.880946,4459.285435,4.785079946,9.213246079,11.74013243,16.50793352,26.55570938,53.11141876,106.2228375,108.6961002,175.5624187
149,150,LONG BEACH - 37TH AND GAV,97-0654,33.8174,-118.1671,27.22584725,37.91644216,41.98201606,58.42447025,127.9122938,168.6740242,265.8820179,386.6323434,555.9825169,1.07188375,1.492773313,1.652835278,2.300175994,5.035917079,6.640709614,10.46779598,15.2217458,21.88907547,158.2669624,233.4024437,269.8194546,422.0583976,957.5616813,1915.123363,3830.246725,2611.122586,3455.653066,6.230982771,9.189072586,10.62281317,16.61647234,37.69927879,75.39855758,150.7971152,102.8001018,136.0493333
150,151,LONG BEACH #1,97-1285,33.7679,-118.1343,27.82809282,40.14115022,46.27363253,63.94743041,126.5290153,174.7894206,259.8933376,366.8429405,514.0114965,1.095594206,1.580360245,1.821796556,2.51761537,4.981457295,6.881473252,10.23202117,14.44263545,20.23667309,161.1581851,243.556149,287.753866,443.1187349,900.7626566,1801.525313,3603.050626,2476.221179,3208.367402,6.344810436,9.588824765,11.32889236,17.44561948,35.46309672,70.92619343,141.8523869,97.48902279,126.3136772
151,152,LONG BEACH DAUGHERTY AP,Apr-85,33.8117,-118.1464,27.22584725,37.91644216,41.98201606,58.42447025,127.9122938,168.6740242,265.8820179,386.6323434,555.9825169,1.07188375,1.492773313,1.652835278,2.300175994,5.035917079,6.640709614,10.46779598,15.2217458,21.88907547,158.2669624,233.4024437,269.8194546,422.0583976,957.5616813,1915.123363,3830.246725,2611.122586,3455.653066,6.230982771,9.189072586,10.62281317,16.61647234,37.69927879,75.39855758,150.7971152,102.8001018,136.0493333
152,153,LONG BEACH-ALAMITOS LAND,97-1191,33.7668,-118.1841,23.62138916,33.05814717,41.57539318,58.85392331,119.2076151,176.7944023,264.709524,388.5348345,524.2929173,0.929975951,1.301501857,1.636826503,2.317083595,4.693213193,6.960409539,10.4216348,15.29664703,20.64145344,112.4948198,176.4014925,255.8116863,407.2630779,850.1262695,1700.252539,3400.505078,2530.908782,3240.209924,4.428929913,6.944940649,10.07132623,16.03397944,33.46953817,66.93907634,133.8781527,99.64207805,127.5673198
153,154,LONG BEACH-CITY HALL-VETE,97-0379,33.767,-118.1843,23.62138916,33.05814717,41.57539318,58.85392331,119.2076151,176.7944023,264.709524,388.5348345,524.2929173,0.929975951,1.301501857,1.636826503,2.317083595,4.693213193,6.960409539,10.4216348,15.29664703,20.64145344,112.4948198,176.4014925,255.8116863,407.2630779,850.1262695,1700.252539,3400.505078,2530.908782,3240.209924,4.428929913,6.944940649,10.07132623,16.03397944,33.46953817,66.93907634,133.8781527,99.64207805,127.5673198
154,155,LONG BEACH-JOTHAM BIXBY C,97-1190,33.7668,-118.1843,23.62138916,33.05814717,41.57539318,58.85392331,119.2076151,176.7944023,264.709524,388.5348345,524.2929173,0.929975951,1.301501857,1.636826503,2.317083595,4.693213193,6.960409539,10.4216348,15.29664703,20.64145344,112.4948198,176.4014925,255.8116863,407.2630779,850.1262695,1700.252539,3400.505078,2530.908782,3240.209924,4.428929913,6.944940649,10.07132623,16.03397944,33.46953817,66.93907634,133.8781527,99.64207805,127.5673198
155,156,LOOMIS RACH-ALDER CREEK,97-0124,34.3349,-118.0348,24.48833982,42.22082604,42.6430343,56.37127153,105.6973707,234.5403228,345.8720313,498.8495683,602.3451232,0.964107867,1.662237246,1.678859618,2.219341399,4.161313807,9.233870976,13.61700911,19.63974678,23.71437493,139.1146603,262.3035938,274.7579556,437.7286654,837.0986521,1674.197304,3348.394608,3237.342307,3804.989932,5.476955129,10.32691314,10.81724235,17.23341203,32.95663985,65.91327969,131.8265594,127.4544216,149.8027532
156,157,LORAINE,Apr-98,35.3,-118.4333,18.46919561,22.8771737,34.3929021,47.92851181,80.01453995,131.0138246,157.7711624,224.329222,292.8378764,0.727133685,0.90067613,1.354051264,1.886949284,3.150178738,5.158024591,6.211463087,8.831859134,11.52905025,78.91080382,99.53097876,188.9290088,301.5695751,559.4785049,1118.95701,2237.914019,1529.926778,1937.879972,3.10672456,3.918542471,7.438149954,11.87281792,22.02671279,44.05342558,88.10685116,60.2333377,76.29448709
157,158,LOS ALAMITOS,97-0960,33.8097,-118.0764,23.97073143,29.96727727,45.87211714,67.56397165,146.2838743,215.7471146,300.0807549,443.0535096,569.9068018,0.943729584,1.179814066,1.805988864,2.659998884,5.75920765,8.49398089,11.81420295,17.44305156,22.43727566,118.5187906,157.5269537,291.4106856,475.7521167,1045.721611,2091.443222,4182.886444,2905.971222,3500.199223,4.666094117,6.201848571,11.47286164,18.73039829,41.17014216,82.34028432,164.6805686,114.4083158,137.803119
158,159,LOS ALAMOS,7-Apr,34.7456,-120.28,22.48335052,28.99384521,43.6252787,60.51546065,107.3157703,162.2215371,273.7195198,413.9029185,468.8092696,0.88517128,1.141489969,1.717530657,2.382498451,4.225030327,6.386674689,10.77635905,16.29539049,18.45705786,106.3099807,145.9817895,271.9474731,412.7521492,784.3559459,1568.711892,3137.423783,2927.840958,3375.921832,4.185432312,5.747314546,10.70659343,16.25008461,30.88015535,61.7603107,123.5206214,115.2693291,132.9103084
159,160,LOS ANGELES COUNTRY CLUB,97-1072,34.0694,-118.4214,22.89633044,28.31528659,40.08010413,56.28511825,108.7528822,164.1874529,267.560382,363.5901312,462.0992085,0.901430332,1.114775063,1.577956856,2.215949537,4.281609535,6.464072949,10.53387331,14.31457209,18.19288222,112.7542394,151.9567172,247.2797928,393.2318719,840.2694521,1680.538904,3361.077809,2585.526976,3181.923034,4.439143283,5.98254792,9.735424913,15.48156976,33.08147449,66.16294899,132.325898,101.7924006,125.2725604
160,161,LOS ANGELES DOWNTOWN/USC,15-Apr,34.0217,-118.2914,20.02702486,26.37349952,34.67885468,49.4787033,105.5591585,161.4940342,222.5360605,317.7986847,425.5391051,0.788465546,1.038326753,1.365309239,1.947980445,4.155872382,6.358032843,8.761262224,12.51175924,16.75350807,85.33522489,126.2284718,188.0697611,312.0708722,754.879535,1509.75907,3019.51814,2239.315354,2889.055005,3.359654523,4.969624875,7.404321302,12.28625481,29.71966673,59.43933346,118.8786669,88.16202182,113.742323
161,162,LOS ANGELES INTERNATIONAL,97-0728,33.9432,-118.3847,21.9778289,27.29872258,38.52704892,54.03633308,106.0374574,153.1508113,219.9470694,321.3980421,466.3636,0.865268854,1.074752857,1.51681295,2.127414688,4.174703047,6.0295595,8.659333441,12.65346622,18.36077165,110.7208345,149.6668125,238.3627526,372.8346437,808.4590174,1616.918035,3233.83607,2288.726105,3103.495868,4.359087971,5.892394194,9.38436034,14.67852928,31.82909517,63.65819035,127.3163807,90.10732698,122.1848767
162,163,LOS ANGELES INTL AP,14-Apr,33.9381,-118.3889,21.9778289,27.29872258,38.52704892,54.03633308,106.0374574,153.1508113,219.9470694,321.3980421,466.3636,0.865268854,1.074752857,1.51681295,2.127414688,4.174703047,6.0295595,8.659333441,12.65346622,18.36077165,110.7208345,149.6668125,238.3627526,372.8346437,808.4590174,1616.918035,3233.83607,2288.726105,3103.495868,4.359087971,5.892394194,9.38436034,14.67852928,31.82909517,63.65819035,127.3163807,90.10732698,122.1848767
163,164,LOS ANGELES-96TH AND CENT,97-0444,33.9349,-118.2505,22.13563936,31.66046517,39.50536464,56.91948881,121.8966852,188.5888489,271.7781989,375.5637352,509.55634,0.871481865,1.246475007,1.555329317,2.240924756,4.799082094,7.424757831,10.69992909,14.78597383,20.06127323,106.674072,163.0430283,251.1361331,407.0384613,916.1768229,1832.353646,3664.707292,2623.299434,3366.127916,4.199766614,6.419016861,9.887249335,16.02513627,36.06995366,72.13990732,144.2798146,103.2795053,132.5247211
164,165,LOS ANGELES-CLARK MEMORIA,97-1220,34.0333,-118.3014,20.02702486,26.37349952,34.67885468,49.4787033,105.5591585,161.4940342,222.5360605,317.7986847,425.5391051,0.788465546,1.038326753,1.365309239,1.947980445,4.155872382,6.358032843,8.761262224,12.51175924,16.75350807,85.33522489,126.2284718,188.0697611,312.0708722,754.879535,1509.75907,3019.51814,2239.315354,2889.055005,3.359654523,4.969624875,7.404321302,12.28625481,29.71966673,59.43933346,118.8786669,88.16202182,113.742323
165,166,LOS ANGELES-DUCOMMUN ST.,97-0703,34.0525,-118.2369,18.5148302,27.60446625,32.57981564,47.91413432,106.3231555,180.0891494,266.3643206,377.1346835,496.9195379,0.728930323,1.08679001,1.282669907,1.886383241,4.185951004,7.090123992,10.48678428,14.84782219,19.56376133,73.14128874,139.6164053,168.922124,300.3438711,767.9796009,1535.959202,3071.918404,2551.914763,3223.598774,2.879578297,5.49670887,6.650477325,11.82456186,30.23541736,60.47083472,120.9416694,100.4690852,126.9133375
166,167,LOS ANGELES-EAST VALLEY,97-1005,34.2083,-118.4097,30.65038987,44.26311687,62.9045936,85.16220603,145.0137654,227.6698432,322.238096,439.1880433,552.5680727,1.206708263,1.742642396,2.476558803,3.352842757,5.709203362,8.963379654,12.68653921,17.29086785,21.75464853,183.2132566,262.4297211,436.242243,645.8361268,1082.888355,2165.776711,4331.553422,2982.358839,3617.109166,7.213120339,10.33187878,17.17489146,25.42661917,42.63339982,85.26679964,170.5335993,117.4157023,142.4058727
167,168,LOS ANGELES-HANCOCK PARK,97-1180,34.0513,-118.3505,20.02702486,26.37349952,34.67885468,49.4787033,105.5591585,161.4940342,222.5360605,317.7986847,425.5391051,0.788465546,1.038326753,1.365309239,1.947980445,4.155872382,6.358032843,8.761262224,12.51175924,16.75350807,85.33522489,126.2284718,188.0697611,312.0708722,754.879535,1509.75907,3019.51814,2239.315354,2889.055005,3.359654523,4.969624875,7.404321302,12.28625481,29.71966673,59.43933346,118.8786669,88.16202182,113.742323
168,169,LOS ANGELES-HILLCREST COU,97-0615,34.0483,-118.4017,22.89633044,28.31528659,40.08010413,56.28511825,108.7528822,164.1874529,267.560382,363.5901312,462.0992085,0.901430332,1.114775063,1.577956856,2.215949537,4.281609535,6.464072949,10.53387331,14.31457209,18.19288222,112.7542394,151.9567172,247.2797928,393.2318719,840.2694521,1680.538904,3361.077809,2585.526976,3181.923034,4.439143283,5.98254792,9.735424913,15.48156976,33.08147449,66.16294899,132.325898,101.7924006,125.2725604
169,170,LOS ANGELES-U.S.C,97-0620,34.0206,-118.2875,20.02702486,26.37349952,34.67885468,49.4787033,105.5591585,161.4940342,222.5360605,317.7986847,425.5391051,0.788465546,1.038326753,1.365309239,1.947980445,4.155872382,6.358032843,8.761262224,12.51175924,16.75350807,85.33522489,126.2284718,188.0697611,312.0708722,754.879535,1509.75907,3019.51814,2239.315354,2889.055005,3.359654523,4.969624875,7.404321302,12.28625481,29.71966673,59.43933346,118.8786669,88.16202182,113.742323
170,171,LOS BANOS,18-Apr,37.0564,-120.8667,16.48181379,21.42241823,29.04071326,40.07351523,65.22431234,100.1970587,154.2441409,252.3623831,278.1177002,0.648890307,0.843402293,1.143335168,1.57769745,2.567886313,3.944766091,6.072603972,9.935526894,10.94951576,64.7177157,89.23095921,147.6250441,233.9500404,470.045155,940.09031,1880.18062,1951.743685,2205.501783,2.547941563,3.51302989,5.812009612,9.210631513,18.50571476,37.01142953,74.02285906,76.84030255,86.83077884
171,172,LOS BANOS ARBURUA RCH,19-Apr,36.8806,-120.9422,16.52730515,23.8985363,28.71727624,38.10080955,66.2680716,119.2390652,202.3942716,289.8212766,334.0592601,0.650681305,0.940887256,1.130601427,1.500031872,2.608979197,4.694451386,7.968278409,11.41028648,13.15193937,64.30281727,118.4122156,147.946154,216.5596068,453.180732,906.3614639,1812.722928,2170.484145,2506.177753,2.531606979,4.661898252,5.824651731,8.525968772,17.8417611,35.6835222,71.36704441,85.45213167,98.66841549
172,173,LOS BANOS DET RESV,20-Apr,36.9897,-120.9297,16.59498478,23.05301197,27.94717698,38.70157388,66.96455815,109.9391142,179.7499876,281.3039782,302.1652789,0.653345857,0.907598896,1.100282558,1.523684011,2.636399927,4.328311583,7.076771165,11.07495977,11.89627082,65.92460446,102.6630729,141.2227199,225.0633861,477.3017718,954.6035435,1909.207087,2128.70922,2363.558383,2.595456869,4.041853265,5.559949604,8.860763233,18.79140834,37.58281668,75.16563335,83.80744961,93.05347965
173,174,LOS GATOS,23-Apr,37.2319,-121.9592,27.03158272,39.88342574,53.49821542,80.85362021,140.9780935,219.7181544,301.3910023,470.7732845,501.3897969,1.06423554,1.570213612,2.106228954,3.183213394,5.550318642,8.650321039,11.86578749,18.53438128,19.73975578,153.6107614,235.8527428,381.5329308,646.7560642,1170.276223,2340.552445,4681.10489,3732.103833,4102.150947,6.047667773,9.285541054,15.02098153,25.46283717,46.07386703,92.14773406,184.2954681,146.9332218,161.5020058
174,175,LOS GATOS CK - LEXINGTON,96-0317,37.2017,-121.9881,27.03158272,39.88342574,53.49821542,80.85362021,140.9780935,219.7181544,301.3910023,470.7732845,501.3897969,1.06423554,1.570213612,2.106228954,3.183213394,5.550318642,8.650321039,11.86578749,18.53438128,19.73975578,153.6107614,235.8527428,381.5329308,646.7560642,1170.276223,2340.552445,4681.10489,3732.103833,4102.150947,6.047667773,9.285541054,15.02098153,25.46283717,46.07386703,92.14773406,184.2954681,146.9332218,161.5020058
175,176,LOS PRIETOS R.S.,Apr-47,34.5444,-119.7914,30.01403984,38.26491463,62.83963571,78.19484056,110.2232487,191.5454303,316.3751341,462.2416273,529.6481034,1.181655112,1.506492702,2.474001406,3.07853703,4.33949798,7.541158673,12.45571394,18.19848926,20.85228754,186.3149333,233.1091947,438.1424745,565.9890707,811.4832563,1622.966513,3245.933025,3296.019491,3698.047258,7.335233594,9.17752735,17.24970372,22.28303428,31.9481597,63.89631939,127.7926388,129.7645469,145.5924117
176,177,LOST HILLS,Apr-51,35.6169,-119.6892,18.90617214,23.19637667,35.90156288,44.76198095,58.10992512,62.33589006,89.87066356,149.1120789,182.5286991,0.744337486,0.913243176,1.413447357,1.762282715,2.287792328,2.4541689,3.538215101,5.870554287,7.186169256,90.38422432,107.5640073,216.7115785,277.9450784,367.3248557,734.6497114,1469.299423,996.6862122,1236.841623,3.558434028,4.234803435,8.531951911,10.94271962,14.46160849,28.92321698,57.84643397,39.23961465,48.69455208
177,178,LOVELAND RESERVOIR,92-1710,32.7833,-116.7833,23.85559152,30.15675105,44.8016494,63.36378341,129.1390018,183.0029679,274.9260776,309.0119032,367.4252501,0.939196517,1.187273663,1.763844465,2.494637142,5.084212669,7.204841256,10.82386132,12.16582296,14.46556103,120.5863493,160.4279969,273.9748269,417.9262154,875.3260055,1750.652011,3501.304022,2217.089795,2535.622724,4.747494066,6.31606287,10.78641051,16.45378801,34.46165376,68.92330752,137.846615,87.28699981,99.82766628
178,179,LOWER FRANKLIN RESERVOIR,97-0796,34.0953,-118.4111,26.42319578,32.50993416,52.70270455,75.11820375,126.7460466,206.8323842,303.1134859,409.4199003,522.9860254,1.040283298,1.279918668,2.074909628,2.957409596,4.990001835,8.143007252,11.93360181,16.11889371,20.590001,155.5855655,190.5790611,368.1568678,569.3147901,946.4281949,1892.85639,3785.712779,2766.145917,3428.229195,6.125415964,7.503112643,14.49436487,22.41396812,37.26095255,74.52190511,149.0438102,108.9033825,134.9696533
179,180,LOWER OTAY RESERVOIR,Apr-62,32.6167,-116.9333,22.01980548,33.59034379,40.57076042,57.97539257,116.4539022,143.7898939,217.8471561,287.2117525,337.1263265,0.866921476,1.32245448,1.597274032,2.28249577,4.584799299,5.661019445,8.576659689,11.30754931,13.27269002,116.1086574,182.5116178,254.4650175,384.1554463,797.8018321,1595.603664,3191.207329,1983.347355,2269.268498,4.571206983,7.185496763,10.01830778,15.12423017,31.40952095,62.8190419,125.6380838,78.08454154,89.34127944
180,181,LYTLE CREEK AT FOOTHILL B,79-2159,34.1075,-117.3341,20.91818289,31.24254764,35.97370083,51.91326778,95.21077509,173.2109308,287.9510111,542.2646641,721.513278,0.823550507,1.230021561,1.416287434,2.04382944,3.748455712,6.819327984,11.33665398,21.34900252,28.40603457,94.59476704,165.2411629,203.3805625,337.4315294,640.017206,1280.034412,2560.068824,2879.721435,3726.261284,3.724203427,6.505557594,8.007108761,13.28470588,25.1975278,50.39505559,100.7901112,113.3748596,146.7032002
181,182,LYTLE CREEK FIRE STATION,79-2287,34.2594,-117.5,21.09592098,35.89942292,36.25841715,48.80615773,85.94616495,142.9118388,255.436397,492.1787838,691.3819757,0.83054807,1.413363107,1.427496738,1.921502273,3.383707281,5.626450346,10.05655106,19.37711747,27.21976282,95.39521367,202.7646484,196.2558492,322.5873987,611.6037522,1223.207504,2446.415009,2792.190979,3720.550602,3.755717074,7.982860172,7.726608237,12.70029129,24.07888788,48.15777576,96.31555153,109.9287787,146.4783702
182,183,LYTLE CREEK FOOTHILL BLVD,12-Apr,34.095,-117.3347,20.91818289,31.24254764,35.97370083,51.91326778,95.21077509,173.2109308,287.9510111,542.2646641,721.513278,0.823550507,1.230021561,1.416287434,2.04382944,3.748455712,6.819327984,11.33665398,21.34900252,28.40603457,94.59476704,165.2411629,203.3805625,337.4315294,640.017206,1280.034412,2560.068824,2879.721435,3726.261284,3.724203427,6.505557594,8.007108761,13.28470588,25.1975278,50.39505559,100.7901112,113.3748596,146.7032002
183,184,LYTLE CREEK PH,15-Apr,34.2,-117.45,17.80251374,29.02370271,30.5694437,43.76553972,83.92793335,182.4552521,310.3084094,526.9310623,670.3099093,0.700886368,1.142665461,1.203521406,1.723052745,3.304249344,7.183277642,12.21686651,20.74531741,26.39015391,75.57529432,150.0049744,153.1298322,260.0550761,548.4310826,1096.862165,2193.72433,2728.156314,3444.026486,2.975405288,5.905707654,6.028733552,10.23838882,21.59177491,43.18354981,86.36709962,107.4077289,135.5915939
184,185,LYTLE CREEK R S,18-Apr,34.2383,-117.4708,17.80251374,29.02370271,30.5694437,43.76553972,83.92793335,182.4552521,310.3084094,526.9310623,670.3099093,0.700886368,1.142665461,1.203521406,1.723052745,3.304249344,7.183277642,12.21686651,20.74531741,26.39015391,75.57529432,150.0049744,153.1298322,260.0550761,548.4310826,1096.862165,2193.72433,2728.156314,3444.026486,2.975405288,5.905707654,6.028733552,10.23838882,21.59177491,43.18354981,86.36709962,107.4077289,135.5915939
185,186,MAD RIVER RANGER STN,Apr-44,40.45,-123.5333,51.90724707,92.24610538,95.65407312,120.9425916,159.6912766,199.3119928,307.6652007,629.4520367,1035.679824,2.043592404,3.631736432,3.765908391,4.761519354,6.287058134,7.84692885,12.11280318,24.78157625,40.77479622,421.9209758,768.1213901,872.3638045,1219.723633,1661.829139,3323.658278,6647.316557,6943.229614,10667.26721,16.61106204,30.24099961,34.34503167,48.02061547,65.42634406,130.8526881,261.7053763,273.3554966,419.9711498
186,187,MADELINE,Apr-31,41.0167,-120.5,23.94031873,56.01546454,56.57561919,57.70713157,59.43834552,63.04342711,76.21191537,93.67172362,148.8969769,0.942532233,2.20533325,2.227386582,2.271934314,2.340092343,2.482024689,3.000469109,3.687863135,5.862085705,145.8364723,366.4799556,177.1470342,214.8284207,341.7173869,683.4347737,1366.869548,594.8996065,982.9367477,5.741593396,14.42834471,6.974292687,8.457811838,13.45344043,26.90688086,53.81376171,23.42124435,38.69829715
187,188,MADERA,Apr-33,36.9539,-120.0378,20.67372268,28.10628869,37.81802536,50.82962681,77.34306206,106.7930276,142.1671582,240.8684349,250.2310985,0.81392609,1.106546799,1.488898636,2.00116641,3.045002443,4.204449906,5.597132213,9.483009248,9.851618051,94.10670341,158.4276316,216.5563692,326.9333939,548.8677357,1097.735471,2195.470943,1927.26352,2088.157081,3.704988323,6.237308331,8.525841305,12.87139346,21.60896597,43.21793195,86.43586389,75.87651654,82.21090872
188,189,MAGIC MOUNTAIN,97-0802,34.3883,-118.3242,28.1431665,34.53858932,47.04824787,64.98628318,118.7195507,215.4929691,415.2097392,547.6835575,665.7820841,1.107998681,1.359786981,1.852293223,2.558515086,4.673998059,8.483975161,16.34684013,21.56234478,26.21189307,181.1719256,205.7789192,301.3190167,455.0874872,858.3196853,1716.639371,3433.278741,3390.850407,4016.012929,7.132752976,8.101532251,11.86295341,17.91683021,33.7921136,67.58422719,135.1684544,133.4980475,158.1107452
189,190,MAGOON (MGN),72-0021,37.4894,-119.8122,28.18685576,38.96022361,56.73233811,81.28954924,125.4809972,178.3075211,245.5091972,278.4108225,398.1031863,1.109718731,1.533867071,2.233556619,3.200375954,4.94019674,7.019981146,9.665716425,10.961056,15.67335379,155.0743937,219.2113866,393.7956188,624.8452278,981.7864084,1963.572817,3927.145633,2606.949844,3632.727046,6.105291089,8.630369553,15.50376452,24.60020582,38.6530082,77.30601641,154.6120328,102.6358206,143.0207498
190,191,MAHATTAN BEACH,97-0925,33.8833,-118.3886,27.27817542,40.15206907,44.69764865,56.31652088,106.0857317,163.3536051,258.6168663,376.4018389,492.5772795,1.073943914,1.580790121,1.759749947,2.217185861,4.17660361,6.431244295,10.18176639,14.81897004,19.39280628,155.3068929,235.0976392,307.5648661,406.1361278,791.4500032,1582.900006,3165.800013,2630.818997,3285.372264,6.114444604,9.255812567,12.108853,15.98961133,31.15944895,62.31889789,124.6377958,103.5755511,129.3453647
191,192,MAHNKE,Apr-58,38.8542,-122.7778,31.93206232,39.87531981,56.26498961,76.565368,123.7614734,230.0154106,461.6758921,657.8380575,1000.503171,1.257167808,1.569894481,2.215157071,3.014384567,4.872498953,9.055724827,18.17621622,25.89913612,39.38988862,198.2773892,257.2847398,429.4709054,644.4626834,1174.586124,2349.172249,4698.344497,6317.17729,9032.469265,7.806196425,10.12932047,16.90830336,25.37254659,46.2435482,92.4870964,184.9741928,248.7077673,355.6090262
192,193,MAIN STATION,83-6052,37.3317,-121.8977,22.55358205,28.76642786,41.9592705,66.09726003,115.4867314,187.5047843,248.510884,351.2035833,372.3510061,0.887936301,1.13253653,1.651939783,2.602254332,4.546721709,7.382078122,9.783893071,13.82691273,14.65948843,124.8034289,155.4241339,285.4409649,524.3845359,934.9660838,1869.932168,3739.864335,2903.208787,3164.61173,4.913520823,6.119060388,11.23783326,20.64506047,36.80968834,73.61937667,147.2387533,114.2995585,124.591013
193,194,MALIBU BEACH-DUNNE,97-0865,34.0333,-118.7117,20.30218901,29.6827189,32.1522688,42.87869375,91.25677167,179.8388554,238.5936479,343.93902,430.7850071,0.79929878,1.16861098,1.265837354,1.688137549,3.592786286,7.080269898,9.393450705,13.5409063,16.96003965,80.99718998,154.7022991,177.0072741,258.6115402,686.0462814,1372.092563,2744.185126,2492.266148,3079.001132,3.188865747,6.090641698,6.968790317,10.1815567,27.00969612,54.01939224,108.0387845,98.12071449,121.220517
194,195,MANDEVILLE CANYON ROAD,97-0772,34.1067,-118.5028,26.28001665,33.05169075,48.12951125,69.10519325,115.2319434,192.9685161,285.4625606,389.5030091,469.0523255,1.034646325,1.301247667,1.894862648,2.7206769,4.536690685,7.597185673,11.23868349,15.33476414,18.46662699,155.6899332,193.5527151,354.5407282,558.7204742,924.9444466,1849.888893,3699.777786,2846.047505,3315.327024,6.129524927,7.620185635,13.95829639,21.99686906,36.41513569,72.83027138,145.6605428,112.0491144,130.524686
195,196,MANZANITA LAKE,11-Apr,40.5411,-121.5767,28.95079232,48.44339724,48.92783122,60.21466968,108.879817,203.1095223,459.0198111,562.8474446,724.5426957,1.139794973,1.907220364,1.926292568,2.370656287,4.286606969,7.996437886,18.07164611,22.15934821,28.52530298,143.6200651,324.3009593,273.6088392,448.2942517,1032.528424,2065.056849,4130.113697,5193.251102,6494.071419,5.654333271,12.7677543,10.77200154,17.64937999,40.65072537,81.30145073,162.6029015,204.4587048,255.6721031
196,197,MANZANITA MOUNTAIN,80-0249,34.8939,-120.0817,29.79384294,41.40319358,65.7337519,95.62088403,129.8024112,171.6073605,267.6245417,410.6861121,482.745453,1.172985943,1.630046991,2.587942988,3.764601733,5.11033115,6.756195295,10.53639928,16.16874457,19.0057265,166.6404948,253.2235495,454.2831095,707.3755161,981.8703473,1963.740695,3927.481389,2951.228896,3379.190128,6.560649402,9.969431084,17.88516179,27.84942977,38.65631289,77.31262577,154.6252515,116.190114,133.0389814
197,198,MARICOPA,Apr-38,35.0833,-119.3833,17.17231352,22.77407645,29.07332783,41.88031314,60.87722055,75.15826365,92.34115024,130.0983729,187.6159675,0.676075335,0.896617183,1.144619206,1.648831226,2.396740967,2.958986758,3.635478356,5.121983185,7.386455413,79.59356891,116.1591215,152.2826772,256.0560053,390.498848,780.997696,1561.995392,895.981982,1284.620389,3.133605075,4.573193759,5.995380992,10.08094509,15.37397039,30.74794079,61.49588158,35.27488118,50.57560586
198,199,MARIPOSA,Apr-46,37.4833,-119.9667,23.55318104,29.1476931,44.42851014,61.31342521,105.9652713,139.9095629,181.7282017,214.0140087,298.4726308,0.927290592,1.147546972,1.749153943,2.413914378,4.171861075,5.508250508,7.15465361,8.425748374,11.75089098,107.3500954,138.3714666,271.0300168,429.6509732,841.1971856,1682.394371,3364.788742,2057.438876,2903.085106,4.22638171,5.447695536,10.6704731,16.91539265,33.11799943,66.23599886,132.4719977,81.00153056,114.2946892
199,200,MARIPOSA R S,Apr-52,37.495,-119.9858,23.55318104,29.1476931,44.42851014,61.31342521,105.9652713,139.9095629,181.7282017,214.0140087,298.4726308,0.927290592,1.147546972,1.749153943,2.413914378,4.171861075,5.508250508,7.15465361,8.425748374,11.75089098,107.3500954,138.3714666,271.0300168,429.6509732,841.1971856,1682.394371,3364.788742,2057.438876,2903.085106,4.22638171,5.447695536,10.6704731,16.91539265,33.11799943,66.23599886,132.4719977,81.00153056,114.2946892
200,201,MARKLEEVILLE,Apr-56,38.6919,-119.7803,29.4734319,55.20085531,55.75286386,56.86792114,89.10524097,154.2522102,221.8459722,248.4226512,327.9801337,1.160371335,2.17326202,2.19499464,2.238894533,3.508080353,6.072921661,8.734093394,9.780419339,12.91260369,156.1995962,383.1906806,246.5455964,342.4239316,639.2207209,1278.441442,2556.882884,2041.58297,2666.13559,6.149590401,15.08624727,9.706519542,13.48125715,25.16617012,50.33234023,100.6646805,80.37728227,104.9659681
201,202,MARKLEY COVE,Apr-60,38.4917,-122.1242,30.75017856,41.47755526,56.52519918,77.41434494,117.2512307,176.645504,317.9128345,456.7229236,800.4983232,1.210636951,1.632974617,2.225401543,3.047808856,4.616190185,6.954547402,12.51625333,17.98121746,31.51568202,176.9511309,248.4918528,417.1349309,647.5209,1050.290218,2100.580437,4201.160874,4209.687822,6725.499743,6.966579956,9.783143811,16.42263507,25.49294882,41.3500086,82.7000172,165.4000344,165.735741,264.7834545
202,203,MARTINEZ 2 S,Apr-71,37.97,-122.1275,29.49470365,46.54836654,52.67445409,67.69705665,99.85523093,153.2193892,234.0900726,296.3975063,474.3686523,1.161208805,1.832612856,2.073797405,2.665238451,3.931308304,6.032259417,9.216144591,11.66919316,18.67593119,156.9371567,302.5635351,350.4780227,512.5915506,820.9290842,1641.858168,3283.716337,2813.372956,4218.569985,6.178628218,11.9119502,13.79834735,20.18076971,32.32004269,64.64008537,129.2801707,110.7627148,166.0854325
203,204,MARTINEZ FIRE STN,Apr-77,38.0167,-122.1333,29.49470365,46.54836654,52.67445409,67.69705665,99.85523093,153.2193892,234.0900726,296.3975063,474.3686523,1.161208805,1.832612856,2.073797405,2.665238451,3.931308304,6.032259417,9.216144591,11.66919316,18.67593119,156.9371567,302.5635351,350.4780227,512.5915506,820.9290842,1641.858168,3283.716337,2813.372956,4218.569985,6.178628218,11.9119502,13.79834735,20.18076971,32.32004269,64.64008537,129.2801707,110.7627148,166.0854325
204,205,ABBOTT 1 SE,29-0022,36.3,-104.25,25.0644106,31.01646378,49.55745774,68.26785526,91.79377165,105.774517,119.6562249,138.1522122,174.6685176,0.986787819,1.221120621,1.951081013,2.687710837,3.613928018,4.164351063,4.710874996,5.439063472,6.876713291,180.7606077,182.5791912,371.0242469,507.3327097,622.216541,1244.433082,2488.866164,921.133501,1175.243938,7.116559359,7.188157134,14.60725382,19.97372873,24.49671421,48.99342843,97.98685685,36.26509846,46.26944637
205,206,ABIQUIU DAM,29-0041,36.2333,-106.4333,14.19817665,22.70306839,22.93009907,26.59113136,36.82744081,43.37444538,57.00249476,64.40152186,74.01833224,0.558983333,0.89382159,0.902759806,1.046894935,1.449899244,1.70765533,2.244192707,2.535492987,2.914107569,58.46050242,123.3545771,104.4444934,138.1917467,201.157788,402.3155759,804.6311519,410.7386165,490.8740348,2.301594584,4.856479412,4.111987929,5.440619949,7.919597951,15.8391959,31.67839181,16.17081167,19.3257494
206,207,ABIQUIU DAM,29-0041,36.2333,-106.4333,14.19817665,22.70306839,22.93009907,26.59113136,36.82744081,43.37444538,57.00249476,64.40152186,74.01833224,0.558983333,0.89382159,0.902759806,1.046894935,1.449899244,1.70765533,2.244192707,2.535492987,2.914107569,58.46050242,123.3545771,104.4444934,138.1917467,201.157788,402.3155759,804.6311519,410.7386165,490.8740348,2.301594584,4.856479412,4.111987929,5.440619949,7.919597951,15.8391959,31.67839181,16.17081167,19.3257494
207,208,ADAVEN,26-0046,38.1167,-115.5833,10.69225455,18.29377192,18.47670964,19.98630527,31.51841687,45.58854299,47.59628252,53.66180356,66.86079076,0.420954904,0.720227241,0.727429513,0.786862412,1.240882554,1.794824527,1.873869391,2.112669431,2.632314597,41.43433014,84.53650187,73.54423455,95.13856502,192.790101,385.580202,771.160404,300.8092304,375.9268529,1.63127284,3.328208735,2.895442305,3.745612796,7.590161457,15.18032291,30.36064583,11.84288309,14.8002698
208,209,ADOBE DAM,00-5535,33.676,-112.1533,10.68821571,13.85677787,18.94318927,27.86078794,45.08002314,52.58295319,68.75996508,88.73839813,107.1937271,0.420795894,0.545542436,0.745794853,1.096881415,1.774804061,2.070195007,2.707085239,3.493637722,4.220225476,38.16727875,54.62984211,87.09550702,159.240719,282.9104996,565.8209991,1131.641998,570.8274672,732.1202767,1.50264877,2.150781186,3.428956969,6.269319646,11.13820864,22.27641729,44.55283458,22.47352233,28.82363294
